% program   : RTKLIB ver.2.4.3
% inp file  : /media/david/Passport/HASPPP/ppp_example/Linux/HAS_PPP_OS/obs/*.23o
% inp file  : /media/david/Passport/HASPPP/ppp_example/Linux/HAS_PPP_OS/obs/*.23p
% inp file  : /media/david/Passport/HASPPP/ppp_example/Linux/HAS_PPP_OS/obs/*.HAS
% obs start : 2023/06/15 00:00:00.0 GPST (week2266 345600.0s)
% obs end   : 2023/06/16 23:59:30.0 GPST (week2266 518370.0s)
% pos mode  : PPP Static
% solution  : Forward
% elev mask : 5.0 deg
% dynamics  : off
% tidecorr  : on
% tropo opt : Estimate ZTD
% ephemeris : Broadcast+SSR APC
% navi sys  : GPS
% antenna1  : LEIAR25.R4      LEIT  ( 0.0000  0.0000  0.0590)
%
% (x/y/z-ecef=WGS84,Q=1:fix,2:float,3:sbas,4:dgps,5:single,6:ppp,ns=# of satellites)
%  GPST                      x-ecef(m)      y-ecef(m)      z-ecef(m)   Q  ns   sdx(m)   sdy(m)   sdz(m)  sdxy(m)  sdyz(m)  sdzx(m) age(s)  ratio
2023/06/15 00:00:00.000   3844061.2050    709661.4639   5023132.2057   6   6  13.4324   4.0140  11.2336   2.6175  -1.0258  10.2077   0.00    0.0
2023/06/15 00:00:30.000   3844061.0080    709661.7039   5023132.0078   6   6   7.9468   2.8402   6.8275   1.6968  -0.8756   5.7114   0.00    0.0
2023/06/15 00:01:00.000   3844059.7069    709661.5988   5023130.6953   6   7   4.6822   2.2656   4.2463   1.6350   0.5776   2.6976   0.00    0.0
2023/06/15 00:01:30.000   3844059.2500    709661.3545   5023130.5649   6   7   3.3516   1.9202   3.2154   1.2623   0.4938   1.7448   0.00    0.0
2023/06/15 00:02:00.000   3844059.5924    709661.4318   5023130.0675   6   7   2.5296   1.6773   2.5748   0.9568   0.4204   1.2734   0.00    0.0
2023/06/15 00:02:30.000   3844059.3849    709661.2344   5023130.1073   6   7   1.9799   1.4951   2.1317   0.7222   0.3750   1.0089   0.00    0.0
2023/06/15 00:03:00.000   3844059.3605    709661.2026   5023130.1297   6   7   1.5977   1.3523   1.8108   0.5419   0.3441   0.8473   0.00    0.0
2023/06/15 00:03:30.000   3844059.5334    709661.3674   5023130.1406   6   7   1.3236   1.2361   1.5721   0.3997   0.3200   0.7414   0.00    0.0
2023/06/15 00:04:00.000   3844059.4846    709661.3959   5023130.0258   6   7   1.1215   1.1389   1.3907   0.2821   0.2990   0.6679   0.00    0.0
2023/06/15 00:04:30.000   3844059.5256    709661.4651   5023129.9711   6   7   0.9688   1.0557   1.2505   0.1757   0.2797   0.6147   0.00    0.0
2023/06/15 00:05:00.000   3844059.3322    709661.3663   5023129.9404   6   7   0.8508   0.9831   1.1403   0.0322   0.2617   0.5745   0.00    0.0
2023/06/15 00:05:30.000   3844059.4082    709661.3509   5023129.9188   6   7   0.7579   0.9189   1.0521  -0.1310   0.2446   0.5432   0.00    0.0
2023/06/15 00:06:00.000   3844059.4851    709661.3770   5023129.8953   6   7   0.6834   0.8616   0.9801  -0.1676   0.2283   0.5179   0.00    0.0
2023/06/15 00:06:30.000   3844059.5576    709661.4689   5023129.7611   6   7   0.6226   0.8098   0.9202  -0.1853   0.2128   0.4968   0.00    0.0
2023/06/15 00:07:00.000   3844059.6105    709661.4983   5023129.7591   6   7   0.5723   0.7629   0.8692  -0.1939   0.1979   0.4784   0.00    0.0
2023/06/15 00:07:30.000   3844059.5670    709661.5359   5023129.7410   6   8   0.5301   0.7200   0.8249  -0.1973   0.1841   0.4618   0.00    0.0
2023/06/15 00:08:00.000   3844059.5536    709661.5734   5023129.7297   6   8   0.4938   0.6807   0.7847  -0.1976   0.1706   0.4460   0.00    0.0
2023/06/15 00:08:30.000   3844059.5634    709661.6040   5023129.7243   6   8   0.4620   0.6446   0.7471  -0.1959   0.1575   0.4300   0.00    0.0
2023/06/15 00:09:00.000   3844059.5970    709661.6466   5023129.6721   6   8   0.4336   0.6112   0.7106  -0.1930   0.1446   0.4135   0.00    0.0
2023/06/15 00:09:30.000   3844059.6225    709661.6357   5023129.6816   6   8   0.4078   0.5804   0.6748  -0.1893   0.1321   0.3961   0.00    0.0
2023/06/15 00:10:00.000   3844059.6293    709661.6527   5023129.6763   6   8   0.3839   0.5518   0.6395  -0.1850   0.1200   0.3781   0.00    0.0
2023/06/15 00:10:30.000   3844059.6335    709661.6368   5023129.7127   6   8   0.3619   0.5253   0.6047  -0.1804   0.1084   0.3598   0.00    0.0
2023/06/15 00:11:00.000   3844059.6455    709661.6032   5023129.7682   6   8   0.3413   0.5006   0.5709  -0.1756   0.0975   0.3413   0.00    0.0
2023/06/15 00:11:30.000   3844059.6484    709661.5887   5023129.7558   6   8   0.3222   0.4775   0.5383  -0.1706   0.0873   0.3232   0.00    0.0
2023/06/15 00:12:00.000   3844059.6569    709661.5741   5023129.7904   6   8   0.3044   0.4561   0.5072  -0.1656   0.0778   0.3056   0.00    0.0
2023/06/15 00:12:30.000   3844059.6473    709661.6081   5023129.7504   6   8   0.2879   0.4360   0.4779  -0.1605   0.0689   0.2888   0.00    0.0
2023/06/15 00:13:00.000   3844059.6693    709661.6324   5023129.7550   6   8   0.2726   0.4172   0.4504  -0.1555   0.0607   0.2729   0.00    0.0
2023/06/15 00:13:30.000   3844059.6929    709661.6733   5023129.7486   6   8   0.2585   0.3996   0.4247  -0.1505   0.0531   0.2579   0.00    0.0
2023/06/15 00:14:00.000   3844059.7055    709661.6825   5023129.7602   6   8   0.2454   0.3831   0.4009  -0.1457   0.0459   0.2440   0.00    0.0
2023/06/15 00:14:30.000   3844059.6954    709661.5822   5023129.8134   6   8   0.2333   0.3676   0.3788  -0.1409   0.0391   0.2310   0.00    0.0
2023/06/15 00:15:00.000   3844059.6950    709661.5528   5023129.8170   6   8   0.2222   0.3530   0.3584  -0.1363   0.0326   0.2190   0.00    0.0
2023/06/15 00:15:30.000   3844059.7090    709661.5650   5023129.8020   6   8   0.2118   0.3393   0.3395  -0.1318   0.0261   0.2079   0.00    0.0
2023/06/15 00:16:00.000   3844059.7144    709661.5524   5023129.8068   6   8   0.2022   0.3264   0.3221  -0.1275   0.0192   0.1976   0.00    0.0
2023/06/15 00:16:30.000   3844059.7154    709661.5392   5023129.8011   6   8   0.1933   0.3142   0.3060  -0.1233   0.0108   0.1880   0.00    0.0
2023/06/15 00:17:00.000   3844059.7206    709661.5361   5023129.8147   6   8   0.1851   0.3027   0.2910  -0.1193  -0.0095   0.1792   0.00    0.0
2023/06/15 00:17:30.000   3844059.7197    709661.5422   5023129.8176   6   8   0.1774   0.2918   0.2772  -0.1155  -0.0160   0.1710   0.00    0.0
2023/06/15 00:18:00.000   3844059.7286    709661.5230   5023129.8308   6   8   0.1702   0.2815   0.2643  -0.1118  -0.0198   0.1633   0.00    0.0
2023/06/15 00:18:30.000   3844059.7362    709661.5258   5023129.8295   6   8   0.1635   0.2718   0.2524  -0.1082  -0.0224   0.1563   0.00    0.0
2023/06/15 00:19:00.000   3844059.7428    709661.5446   5023129.8209   6   8   0.1573   0.2626   0.2413  -0.1048  -0.0242   0.1497   0.00    0.0
2023/06/15 00:19:30.000   3844059.7400    709661.5539   5023129.8102   6   8   0.1514   0.2538   0.2309  -0.1015  -0.0256   0.1435   0.00    0.0
2023/06/15 00:20:00.000   3844059.7418    709661.5512   5023129.8176   6   8   0.1459   0.2455   0.2213  -0.0984  -0.0267   0.1377   0.00    0.0
2023/06/15 00:20:30.000   3844059.7448    709661.5562   5023129.8154   6   8   0.1407   0.2376   0.2122  -0.0954  -0.0275   0.1324   0.00    0.0
2023/06/15 00:21:00.000   3844059.7506    709661.5694   5023129.8143   6   8   0.1359   0.2301   0.2037  -0.0925  -0.0281   0.1273   0.00    0.0
2023/06/15 00:21:30.000   3844059.7587    709661.5698   5023129.8169   6   8   0.1313   0.2229   0.1958  -0.0898  -0.0285   0.1226   0.00    0.0
2023/06/15 00:22:00.000   3844059.7623    709661.5543   5023129.8342   6   8   0.1270   0.2161   0.1883  -0.0871  -0.0288   0.1181   0.00    0.0
2023/06/15 00:22:30.000   3844059.7646    709661.5477   5023129.8304   6   8   0.1229   0.2097   0.1812  -0.0846  -0.0290   0.1139   0.00    0.0
2023/06/15 00:23:00.000   3844059.7674    709661.5620   5023129.8191   6   8   0.1190   0.2035   0.1746  -0.0821  -0.0291   0.1100   0.00    0.0
2023/06/15 00:23:30.000   3844059.7675    709661.5662   5023129.8141   6   8   0.1153   0.1976   0.1683  -0.0798  -0.0292   0.1062   0.00    0.0
2023/06/15 00:24:00.000   3844059.7676    709661.5615   5023129.8145   6   8   0.1119   0.1920   0.1624  -0.0776  -0.0292   0.1027   0.00    0.0
2023/06/15 00:24:30.000   3844059.7650    709661.5506   5023129.8180   6   8   0.1086   0.1866   0.1568  -0.0754  -0.0291   0.0993   0.00    0.0
2023/06/15 00:25:00.000   3844059.7656    709661.5499   5023129.8104   6   8   0.1054   0.1814   0.1515  -0.0733  -0.0290   0.0961   0.00    0.0
2023/06/15 00:25:30.000   3844059.7633    709661.5497   5023129.8141   6   8   0.1024   0.1765   0.1464  -0.0713  -0.0289   0.0931   0.00    0.0
2023/06/15 00:26:00.000   3844059.7620    709661.5500   5023129.8124   6   8   0.0996   0.1718   0.1417  -0.0694  -0.0287   0.0902   0.00    0.0
2023/06/15 00:26:30.000   3844059.7660    709661.5513   5023129.8204   6   8   0.0969   0.1673   0.1371  -0.0676  -0.0286   0.0875   0.00    0.0
2023/06/15 00:27:00.000   3844059.7613    709661.5549   5023129.8055   6   8   0.0944   0.1630   0.1333  -0.0657  -0.0276   0.0853   0.00    0.0
2023/06/15 00:27:30.000   3844059.7618    709661.5473   5023129.8126   6   8   0.0921   0.1588   0.1297  -0.0639  -0.0267   0.0831   0.00    0.0
2023/06/15 00:28:00.000   3844059.7568    709661.5451   5023129.7964   6   8   0.0898   0.1549   0.1261  -0.0621  -0.0259   0.0809   0.00    0.0
2023/06/15 00:28:30.000   3844059.7512    709661.5585   5023129.7747   6   8   0.0876   0.1511   0.1227  -0.0605  -0.0251   0.0789   0.00    0.0
2023/06/15 00:29:00.000   3844059.7461    709661.5691   5023129.7569   6   8   0.0855   0.1474   0.1194  -0.0589  -0.0245   0.0769   0.00    0.0
2023/06/15 00:29:30.000   3844059.7422    709661.5613   5023129.7560   6   8   0.0835   0.1439   0.1162  -0.0573  -0.0239   0.0749   0.00    0.0
2023/06/15 00:30:00.000   3844059.7395    709661.5655   5023129.7456   6   8   0.0815   0.1405   0.1131  -0.0559  -0.0234   0.0730   0.00    0.0
2023/06/15 00:30:30.000   3844059.7374    709661.5615   5023129.7454   6   8   0.0796   0.1373   0.1100  -0.0545  -0.0229   0.0712   0.00    0.0
2023/06/15 00:31:00.000   3844059.7315    709661.5632   5023129.7358   6   8   0.0778   0.1341   0.1071  -0.0531  -0.0225   0.0694   0.00    0.0
2023/06/15 00:31:30.000   3844059.7273    709661.5703   5023129.7224   6   8   0.0760   0.1311   0.1043  -0.0518  -0.0221   0.0677   0.00    0.0
2023/06/15 00:32:00.000   3844059.7230    709661.5655   5023129.7208   6   8   0.0743   0.1282   0.1016  -0.0506  -0.0218   0.0660   0.00    0.0
2023/06/15 00:32:30.000   3844059.7196    709661.5621   5023129.7163   6   8   0.0727   0.1254   0.0990  -0.0494  -0.0215   0.0644   0.00    0.0
2023/06/15 00:33:00.000   3844059.7150    709661.5513   5023129.7184   6   8   0.0711   0.1227   0.0964  -0.0483  -0.0212   0.0628   0.00    0.0
2023/06/15 00:33:30.000   3844059.7090    709661.5523   5023129.7068   6   8   0.0696   0.1201   0.0940  -0.0472  -0.0210   0.0613   0.00    0.0
2023/06/15 00:34:00.000   3844059.7069    709661.5543   5023129.7065   6   8   0.0682   0.1175   0.0916  -0.0461  -0.0208   0.0599   0.00    0.0
2023/06/15 00:34:30.000   3844059.7020    709661.5597   5023129.7002   6   8   0.0668   0.1151   0.0893  -0.0451  -0.0207   0.0584   0.00    0.0
2023/06/15 00:35:00.000   3844059.6991    709661.5687   5023129.6898   6   8   0.0654   0.1127   0.0871  -0.0441  -0.0205   0.0571   0.00    0.0
2023/06/15 00:35:30.000   3844059.6969    709661.5695   5023129.6882   6   7   0.0643   0.1104   0.0854  -0.0433  -0.0207   0.0561   0.00    0.0
2023/06/15 00:36:00.000   3844059.6949    709661.5678   5023129.6889   6   8   0.0632   0.1082   0.0837  -0.0424  -0.0208   0.0552   0.00    0.0
2023/06/15 00:36:30.000   3844059.6920    709661.5728   5023129.6837   6   8   0.0621   0.1061   0.0821  -0.0416  -0.0209   0.0543   0.00    0.0
2023/06/15 00:37:00.000   3844059.6903    709661.5764   5023129.6810   6   8   0.0611   0.1040   0.0805  -0.0408  -0.0210   0.0534   0.00    0.0
2023/06/15 00:37:30.000   3844059.6885    709661.5837   5023129.6756   6   8   0.0601   0.1020   0.0790  -0.0401  -0.0211   0.0525   0.00    0.0
2023/06/15 00:38:00.000   3844059.6879    709661.5826   5023129.6779   6   8   0.0591   0.1001   0.0775  -0.0393  -0.0211   0.0517   0.00    0.0
2023/06/15 00:38:30.000   3844059.6865    709661.5855   5023129.6779   6   7   0.0582   0.0982   0.0761  -0.0386  -0.0212   0.0509   0.00    0.0
2023/06/15 00:39:00.000   3844059.6856    709661.5886   5023129.6770   6   7   0.0573   0.0964   0.0747  -0.0379  -0.0213   0.0501   0.00    0.0
2023/06/15 00:39:30.000   3844059.6852    709661.5899   5023129.6759   6   7   0.0564   0.0946   0.0734  -0.0373  -0.0213   0.0494   0.00    0.0
2023/06/15 00:40:00.000   3844059.6850    709661.5919   5023129.6756   6   7   0.0556   0.0929   0.0721  -0.0366  -0.0214   0.0486   0.00    0.0
2023/06/15 00:40:30.000   3844059.6853    709661.5959   5023129.6725   6   7   0.0548   0.0912   0.0709  -0.0360  -0.0214   0.0479   0.00    0.0
2023/06/15 00:41:00.000   3844059.6846    709661.6049   5023129.6679   6   7   0.0540   0.0896   0.0696  -0.0354  -0.0214   0.0473   0.00    0.0
2023/06/15 00:41:30.000   3844059.6840    709661.6097   5023129.6635   6   7   0.0532   0.0880   0.0685  -0.0348  -0.0214   0.0466   0.00    0.0
2023/06/15 00:42:00.000   3844059.6834    709661.6096   5023129.6648   6   7   0.0525   0.0865   0.0673  -0.0343  -0.0214   0.0459   0.00    0.0
2023/06/15 00:42:30.000   3844059.6835    709661.6082   5023129.6646   6   7   0.0517   0.0850   0.0662  -0.0337  -0.0214   0.0453   0.00    0.0
2023/06/15 00:43:00.000   3844059.6815    709661.6107   5023129.6600   6   7   0.0511   0.0835   0.0651  -0.0332  -0.0213   0.0447   0.00    0.0
2023/06/15 00:43:30.000   3844059.6807    709661.6113   5023129.6601   6   7   0.0504   0.0821   0.0641  -0.0326  -0.0213   0.0441   0.00    0.0
2023/06/15 00:44:00.000   3844059.6803    709661.6106   5023129.6594   6   7   0.0497   0.0807   0.0631  -0.0321  -0.0213   0.0435   0.00    0.0
2023/06/15 00:44:30.000   3844059.6796    709661.6104   5023129.6587   6   7   0.0491   0.0794   0.0621  -0.0316  -0.0212   0.0430   0.00    0.0
2023/06/15 00:45:00.000   3844059.6796    709661.6106   5023129.6588   6   7   0.0485   0.0781   0.0611  -0.0312  -0.0212   0.0424   0.00    0.0
2023/06/15 00:45:30.000   3844059.6796    709661.6114   5023129.6612   6   7   0.0479   0.0768   0.0602  -0.0307  -0.0211   0.0419   0.00    0.0
2023/06/15 00:46:00.000   3844059.6800    709661.6104   5023129.6648   6   7   0.0473   0.0756   0.0593  -0.0302  -0.0210   0.0414   0.00    0.0
2023/06/15 00:46:30.000   3844059.6818    709661.6095   5023129.6665   6   7   0.0467   0.0744   0.0584  -0.0298  -0.0210   0.0409   0.00    0.0
2023/06/15 00:47:00.000   3844059.6827    709661.6091   5023129.6694   6   7   0.0462   0.0732   0.0575  -0.0293  -0.0209   0.0404   0.00    0.0
2023/06/15 00:47:30.000   3844059.6837    709661.6097   5023129.6703   6   7   0.0456   0.0721   0.0567  -0.0289  -0.0208   0.0399   0.00    0.0
2023/06/15 00:48:00.000   3844059.6851    709661.6093   5023129.6740   6   7   0.0451   0.0710   0.0559  -0.0285  -0.0207   0.0395   0.00    0.0
2023/06/15 00:48:30.000   3844059.6852    709661.6088   5023129.6764   6   7   0.0446   0.0699   0.0551  -0.0281  -0.0206   0.0390   0.00    0.0
2023/06/15 00:49:00.000   3844059.6863    709661.6060   5023129.6827   6   7   0.0441   0.0689   0.0543  -0.0277  -0.0205   0.0386   0.00    0.0
2023/06/15 00:49:30.000   3844059.6879    709661.6068   5023129.6861   6   7   0.0437   0.0678   0.0536  -0.0273  -0.0204   0.0382   0.00    0.0
2023/06/15 00:50:00.000   3844059.6895    709661.6068   5023129.6886   6   7   0.0432   0.0668   0.0529  -0.0269  -0.0203   0.0378   0.00    0.0
2023/06/15 00:50:30.000   3844059.6897    709661.6101   5023129.6874   6   7   0.0427   0.0658   0.0522  -0.0266  -0.0202   0.0374   0.00    0.0
2023/06/15 00:51:00.000   3844059.6898    709661.6146   5023129.6855   6   7   0.0423   0.0649   0.0515  -0.0262  -0.0201   0.0370   0.00    0.0
2023/06/15 00:51:30.000   3844059.6906    709661.6130   5023129.6874   6   7   0.0419   0.0639   0.0508  -0.0259  -0.0200   0.0366   0.00    0.0
2023/06/15 00:52:00.000   3844059.6900    709661.6149   5023129.6860   6   7   0.0415   0.0630   0.0502  -0.0255  -0.0199   0.0362   0.00    0.0
2023/06/15 00:52:30.000   3844059.6899    709661.6158   5023129.6886   6   7   0.0411   0.0621   0.0495  -0.0252  -0.0198   0.0359   0.00    0.0
2023/06/15 00:53:00.000   3844059.6899    709661.6137   5023129.6918   6   7   0.0407   0.0613   0.0489  -0.0249  -0.0197   0.0355   0.00    0.0
2023/06/15 00:53:30.000   3844059.6895    709661.6128   5023129.6931   6   7   0.0403   0.0604   0.0483  -0.0246  -0.0196   0.0352   0.00    0.0
2023/06/15 00:54:00.000   3844059.6894    709661.6137   5023129.6932   6   7   0.0399   0.0596   0.0477  -0.0243  -0.0195   0.0348   0.00    0.0
2023/06/15 00:54:30.000   3844059.6892    709661.6145   5023129.6928   6   6   0.0395   0.0589   0.0474  -0.0240  -0.0198   0.0345   0.00    0.0
2023/06/15 00:55:00.000   3844059.6896    709661.6146   5023129.6929   6   6   0.0392   0.0582   0.0470  -0.0237  -0.0201   0.0342   0.00    0.0
2023/06/15 00:55:30.000   3844059.6863    709661.6208   5023129.6931   6   6   0.0389   0.0575   0.0467  -0.0235  -0.0204   0.0340   0.00    0.0
2023/06/15 00:56:00.000   3844059.6850    709661.6231   5023129.6936   6   5   0.0385   0.0569   0.0464  -0.0232  -0.0206   0.0337   0.00    0.0
2023/06/15 00:56:30.000   3844059.6844    709661.6272   5023129.6952   6   6   0.0382   0.0562   0.0461  -0.0230  -0.0208   0.0334   0.00    0.0
2023/06/15 00:57:00.000   3844059.6838    709661.6304   5023129.6968   6   7   0.0379   0.0556   0.0458  -0.0227  -0.0210   0.0331   0.00    0.0
2023/06/15 00:57:30.000   3844059.6837    709661.6322   5023129.6996   6   7   0.0376   0.0550   0.0455  -0.0225  -0.0212   0.0329   0.00    0.0
2023/06/15 00:58:00.000   3844059.6829    709661.6340   5023129.7001   6   6   0.0373   0.0544   0.0452  -0.0222  -0.0214   0.0326   0.00    0.0
2023/06/15 00:58:30.000   3844059.6820    709661.6364   5023129.7008   6   6   0.0370   0.0538   0.0449  -0.0220  -0.0215   0.0324   0.00    0.0
2023/06/15 00:59:00.000   3844059.6812    709661.6384   5023129.7023   6   6   0.0367   0.0532   0.0446  -0.0218  -0.0217   0.0322   0.00    0.0
2023/06/15 00:59:30.000   3844059.6800    709661.6416   5023129.7027   6   6   0.0364   0.0526   0.0443  -0.0216  -0.0218   0.0319   0.00    0.0
2023/06/15 01:00:00.000   3844059.6795    709661.6446   5023129.7041   6   6   0.0361   0.0520   0.0440  -0.0214  -0.0219   0.0317   0.00    0.0
2023/06/15 01:00:30.000   3844059.6795    709661.6472   5023129.7061   6   6   0.0359   0.0515   0.0437  -0.0212  -0.0220   0.0315   0.00    0.0
2023/06/15 01:01:00.000   3844059.6778    709661.6491   5023129.7056   6   7   0.0356   0.0509   0.0435  -0.0210  -0.0221   0.0313   0.00    0.0
2023/06/15 01:01:30.000   3844059.6770    709661.6514   5023129.7062   6   7   0.0354   0.0504   0.0432  -0.0208  -0.0222   0.0311   0.00    0.0
2023/06/15 01:02:00.000   3844059.6765    709661.6535   5023129.7068   6   7   0.0351   0.0499   0.0430  -0.0206  -0.0222   0.0309   0.00    0.0
2023/06/15 01:02:30.000   3844059.6751    709661.6550   5023129.7069   6   7   0.0349   0.0493   0.0427  -0.0204  -0.0223   0.0307   0.00    0.0
2023/06/15 01:03:00.000   3844059.6747    709661.6568   5023129.7079   6   7   0.0347   0.0488   0.0425  -0.0202  -0.0223   0.0305   0.00    0.0
2023/06/15 01:03:30.000   3844059.6738    709661.6599   5023129.7078   6   7   0.0344   0.0483   0.0422  -0.0200  -0.0223   0.0303   0.00    0.0
2023/06/15 01:04:00.000   3844059.6728    709661.6627   5023129.7074   6   7   0.0342   0.0478   0.0420  -0.0198  -0.0224   0.0301   0.00    0.0
2023/06/15 01:04:30.000   3844059.6719    709661.6650   5023129.7080   6   7   0.0340   0.0473   0.0418  -0.0197  -0.0224   0.0299   0.00    0.0
2023/06/15 01:05:00.000   3844059.6711    709661.6674   5023129.7080   6   7   0.0338   0.0468   0.0415  -0.0195  -0.0224   0.0298   0.00    0.0
2023/06/15 01:05:30.000   3844059.6706    709661.6686   5023129.7091   6   7   0.0336   0.0464   0.0413  -0.0193  -0.0224   0.0296   0.00    0.0
2023/06/15 01:06:00.000   3844059.6706    709661.6688   5023129.7107   6   7   0.0334   0.0459   0.0411  -0.0192  -0.0224   0.0295   0.00    0.0
2023/06/15 01:06:30.000   3844059.6704    709661.6687   5023129.7121   6   7   0.0332   0.0454   0.0409  -0.0190  -0.0223   0.0293   0.00    0.0
2023/06/15 01:07:00.000   3844059.6700    709661.6696   5023129.7120   6   7   0.0330   0.0450   0.0407  -0.0189  -0.0223   0.0291   0.00    0.0
2023/06/15 01:07:30.000   3844059.6696    709661.6710   5023129.7122   6   7   0.0328   0.0445   0.0404  -0.0187  -0.0223   0.0290   0.00    0.0
2023/06/15 01:08:00.000   3844059.6698    709661.6710   5023129.7132   6   7   0.0326   0.0441   0.0402  -0.0186  -0.0223   0.0289   0.00    0.0
2023/06/15 01:08:30.000   3844059.6695    709661.6713   5023129.7133   6   7   0.0324   0.0436   0.0400  -0.0185  -0.0222   0.0287   0.00    0.0
2023/06/15 01:09:00.000   3844059.6691    709661.6720   5023129.7133   6   7   0.0323   0.0432   0.0398  -0.0183  -0.0222   0.0286   0.00    0.0
2023/06/15 01:09:30.000   3844059.6686    709661.6730   5023129.7128   6   7   0.0321   0.0428   0.0396  -0.0182  -0.0221   0.0285   0.00    0.0
2023/06/15 01:10:00.000   3844059.6681    709661.6747   5023129.7119   6   7   0.0319   0.0423   0.0394  -0.0180  -0.0221   0.0283   0.00    0.0
2023/06/15 01:10:30.000   3844059.6680    709661.6754   5023129.7129   6   7   0.0318   0.0419   0.0392  -0.0179  -0.0220   0.0282   0.00    0.0
2023/06/15 01:11:00.000   3844059.6675    709661.6759   5023129.7127   6   7   0.0316   0.0415   0.0390  -0.0178  -0.0219   0.0281   0.00    0.0
2023/06/15 01:11:30.000   3844059.6672    709661.6762   5023129.7125   6   7   0.0315   0.0411   0.0389  -0.0177  -0.0219   0.0280   0.00    0.0
2023/06/15 01:12:00.000   3844059.6669    709661.6758   5023129.7132   6   7   0.0313   0.0407   0.0387  -0.0176  -0.0218   0.0279   0.00    0.0
2023/06/15 01:12:30.000   3844059.6673    709661.6757   5023129.7144   6   7   0.0312   0.0403   0.0385  -0.0174  -0.0217   0.0277   0.00    0.0
2023/06/15 01:13:00.000   3844059.6679    709661.6725   5023129.7169   6   7   0.0310   0.0399   0.0383  -0.0173  -0.0216   0.0276   0.00    0.0
2023/06/15 01:13:30.000   3844059.6678    709661.6715   5023129.7186   6   7   0.0309   0.0395   0.0381  -0.0172  -0.0215   0.0275   0.00    0.0
2023/06/15 01:14:00.000   3844059.6679    709661.6705   5023129.7199   6   7   0.0308   0.0391   0.0379  -0.0171  -0.0215   0.0274   0.00    0.0
2023/06/15 01:14:30.000   3844059.6675    709661.6703   5023129.7194   6   7   0.0306   0.0388   0.0378  -0.0170  -0.0214   0.0273   0.00    0.0
2023/06/15 01:15:00.000   3844059.6679    709661.6696   5023129.7211   6   7   0.0305   0.0384   0.0376  -0.0169  -0.0213   0.0272   0.00    0.0
2023/06/15 01:15:30.000   3844059.6683    709661.6674   5023129.7229   6   7   0.0304   0.0380   0.0374  -0.0168  -0.0212   0.0272   0.00    0.0
2023/06/15 01:16:00.000   3844059.6680    709661.6664   5023129.7235   6   7   0.0303   0.0377   0.0373  -0.0167  -0.0211   0.0271   0.00    0.0
2023/06/15 01:16:30.000   3844059.6677    709661.6645   5023129.7244   6   7   0.0302   0.0373   0.0371  -0.0166  -0.0210   0.0270   0.00    0.0
2023/06/15 01:17:00.000   3844059.6676    709661.6643   5023129.7244   6   7   0.0301   0.0370   0.0369  -0.0165  -0.0209   0.0269   0.00    0.0
2023/06/15 01:17:30.000   3844059.6682    709661.6627   5023129.7260   6   7   0.0299   0.0366   0.0368  -0.0164  -0.0208   0.0268   0.00    0.0
2023/06/15 01:18:00.000   3844059.6684    709661.6619   5023129.7268   6   7   0.0298   0.0363   0.0366  -0.0163  -0.0207   0.0267   0.00    0.0
2023/06/15 01:18:30.000   3844059.6682    709661.6617   5023129.7269   6   7   0.0297   0.0359   0.0365  -0.0162  -0.0206   0.0267   0.00    0.0
2023/06/15 01:19:00.000   3844059.6679    709661.6630   5023129.7260   6   7   0.0296   0.0356   0.0363  -0.0162  -0.0205   0.0266   0.00    0.0
2023/06/15 01:19:30.000   3844059.6672    709661.6628   5023129.7248   6   7   0.0295   0.0353   0.0361  -0.0161  -0.0204   0.0265   0.00    0.0
2023/06/15 01:20:00.000   3844059.6671    709661.6590   5023129.7266   6   7   0.0294   0.0349   0.0360  -0.0160  -0.0203   0.0265   0.00    0.0
2023/06/15 01:20:30.000   3844059.6667    709661.6570   5023129.7278   6   7   0.0293   0.0346   0.0358  -0.0159  -0.0201   0.0264   0.00    0.0
2023/06/15 01:21:00.000   3844059.6661    709661.6559   5023129.7278   6   7   0.0292   0.0343   0.0357  -0.0158  -0.0200   0.0263   0.00    0.0
2023/06/15 01:21:30.000   3844059.6662    709661.6569   5023129.7280   6   7   0.0292   0.0340   0.0355  -0.0158  -0.0199   0.0263   0.00    0.0
2023/06/15 01:22:00.000   3844059.6663    709661.6561   5023129.7289   6   7   0.0291   0.0337   0.0354  -0.0157  -0.0198   0.0262   0.00    0.0
2023/06/15 01:22:30.000   3844059.6663    709661.6559   5023129.7295   6   7   0.0290   0.0334   0.0353  -0.0156  -0.0197   0.0261   0.00    0.0
2023/06/15 01:23:00.000   3844059.6658    709661.6548   5023129.7294   6   7   0.0289   0.0331   0.0351  -0.0155  -0.0196   0.0261   0.00    0.0
2023/06/15 01:23:30.000   3844059.6653    709661.6546   5023129.7300   6   7   0.0288   0.0328   0.0350  -0.0155  -0.0195   0.0260   0.00    0.0
2023/06/15 01:24:00.000   3844059.6646    709661.6543   5023129.7297   6   7   0.0287   0.0325   0.0348  -0.0154  -0.0194   0.0260   0.00    0.0
2023/06/15 01:24:30.000   3844059.6642    709661.6540   5023129.7299   6   7   0.0287   0.0322   0.0347  -0.0153  -0.0192   0.0259   0.00    0.0
2023/06/15 01:25:00.000   3844059.6637    709661.6532   5023129.7293   6   7   0.0286   0.0319   0.0346  -0.0153  -0.0191   0.0259   0.00    0.0
2023/06/15 01:25:30.000   3844059.6632    709661.6516   5023129.7308   6   7   0.0285   0.0316   0.0344  -0.0152  -0.0190   0.0258   0.00    0.0
2023/06/15 01:26:00.000   3844059.6630    709661.6520   5023129.7328   6   8   0.0285   0.0313   0.0343  -0.0151  -0.0189   0.0258   0.00    0.0
2023/06/15 01:26:30.000   3844059.6631    709661.6526   5023129.7351   6   8   0.0284   0.0311   0.0342  -0.0151  -0.0188   0.0257   0.00    0.0
2023/06/15 01:27:00.000   3844059.6628    709661.6518   5023129.7376   6   8   0.0283   0.0308   0.0341  -0.0150  -0.0187   0.0257   0.00    0.0
2023/06/15 01:27:30.000   3844059.6628    709661.6509   5023129.7402   6   8   0.0283   0.0305   0.0339  -0.0150  -0.0186   0.0256   0.00    0.0
2023/06/15 01:28:00.000   3844059.6629    709661.6495   5023129.7433   6   8   0.0282   0.0303   0.0338  -0.0149  -0.0185   0.0256   0.00    0.0
2023/06/15 01:28:30.000   3844059.6635    709661.6482   5023129.7468   6   8   0.0281   0.0300   0.0337  -0.0149  -0.0183   0.0256   0.00    0.0
2023/06/15 01:29:00.000   3844059.6644    709661.6491   5023129.7494   6   8   0.0281   0.0298   0.0336  -0.0148  -0.0182   0.0255   0.00    0.0
2023/06/15 01:29:30.000   3844059.6649    709661.6502   5023129.7518   6   8   0.0280   0.0295   0.0334  -0.0147  -0.0181   0.0255   0.00    0.0
2023/06/15 01:30:00.000   3844059.6648    709661.6505   5023129.7533   6   8   0.0279   0.0293   0.0333  -0.0147  -0.0180   0.0254   0.00    0.0
2023/06/15 01:30:30.000   3844059.6650    709661.6507   5023129.7548   6   8   0.0279   0.0290   0.0332  -0.0146  -0.0179   0.0254   0.00    0.0
2023/06/15 01:31:00.000   3844059.6657    709661.6489   5023129.7578   6   8   0.0278   0.0288   0.0331  -0.0146  -0.0178   0.0254   0.00    0.0
2023/06/15 01:31:30.000   3844059.6662    709661.6486   5023129.7602   6   8   0.0278   0.0285   0.0330  -0.0145  -0.0177   0.0253   0.00    0.0
2023/06/15 01:32:00.000   3844059.6669    709661.6477   5023129.7626   6   8   0.0277   0.0283   0.0328  -0.0145  -0.0176   0.0253   0.00    0.0
2023/06/15 01:32:30.000   3844059.6672    709661.6475   5023129.7647   6   8   0.0277   0.0281   0.0327  -0.0145  -0.0175   0.0252   0.00    0.0
2023/06/15 01:33:00.000   3844059.6674    709661.6474   5023129.7666   6   8   0.0276   0.0279   0.0326  -0.0144  -0.0174   0.0252   0.00    0.0
2023/06/15 01:33:30.000   3844059.6670    709661.6455   5023129.7685   6   8   0.0276   0.0276   0.0325  -0.0144  -0.0173   0.0252   0.00    0.0
2023/06/15 01:34:00.000   3844059.6670    709661.6461   5023129.7690   6   8   0.0275   0.0274   0.0324  -0.0143  -0.0172   0.0251   0.00    0.0
2023/06/15 01:34:30.000   3844059.6677    709661.6460   5023129.7712   6   8   0.0275   0.0272   0.0323  -0.0143  -0.0171   0.0251   0.00    0.0
2023/06/15 01:35:00.000   3844059.6680    709661.6462   5023129.7733   6   8   0.0274   0.0270   0.0322  -0.0142  -0.0170   0.0251   0.00    0.0
2023/06/15 01:35:30.000   3844059.6682    709661.6457   5023129.7746   6   8   0.0274   0.0268   0.0320  -0.0142  -0.0169   0.0250   0.00    0.0
2023/06/15 01:36:00.000   3844059.6690    709661.6449   5023129.7767   6   8   0.0273   0.0266   0.0319  -0.0142  -0.0168   0.0250   0.00    0.0
2023/06/15 01:36:30.000   3844059.6690    709661.6444   5023129.7783   6   8   0.0273   0.0264   0.0318  -0.0141  -0.0167   0.0249   0.00    0.0
2023/06/15 01:37:00.000   3844059.6690    709661.6434   5023129.7800   6   8   0.0272   0.0262   0.0317  -0.0141  -0.0166   0.0249   0.00    0.0
2023/06/15 01:37:30.000   3844059.6695    709661.6424   5023129.7818   6   8   0.0272   0.0260   0.0316  -0.0140  -0.0165   0.0249   0.00    0.0
2023/06/15 01:38:00.000   3844059.6693    709661.6427   5023129.7825   6   8   0.0271   0.0258   0.0315  -0.0140  -0.0164   0.0248   0.00    0.0
2023/06/15 01:38:30.000   3844059.6692    709661.6420   5023129.7838   6   8   0.0271   0.0256   0.0314  -0.0140  -0.0163   0.0248   0.00    0.0
2023/06/15 01:39:00.000   3844059.6690    709661.6423   5023129.7839   6   8   0.0270   0.0254   0.0313  -0.0139  -0.0162   0.0248   0.00    0.0
2023/06/15 01:39:30.000   3844059.6688    709661.6419   5023129.7843   6   8   0.0270   0.0252   0.0312  -0.0139  -0.0161   0.0247   0.00    0.0
2023/06/15 01:40:00.000   3844059.6687    709661.6415   5023129.7849   6   8   0.0269   0.0250   0.0311  -0.0139  -0.0160   0.0247   0.00    0.0
2023/06/15 01:40:30.000   3844059.6685    709661.6414   5023129.7857   6   8   0.0269   0.0248   0.0309  -0.0138  -0.0159   0.0246   0.00    0.0
2023/06/15 01:41:00.000   3844059.6688    709661.6415   5023129.7867   6   8   0.0268   0.0246   0.0308  -0.0138  -0.0158   0.0246   0.00    0.0
2023/06/15 01:41:30.000   3844059.6690    709661.6410   5023129.7884   6   8   0.0268   0.0245   0.0307  -0.0138  -0.0157   0.0245   0.00    0.0
2023/06/15 01:42:00.000   3844059.6686    709661.6405   5023129.7884   6   8   0.0267   0.0243   0.0306  -0.0137  -0.0156   0.0245   0.00    0.0
2023/06/15 01:42:30.000   3844059.6684    709661.6400   5023129.7892   6   8   0.0267   0.0241   0.0305  -0.0137  -0.0155   0.0245   0.00    0.0
2023/06/15 01:43:00.000   3844059.6679    709661.6397   5023129.7889   6   8   0.0266   0.0240   0.0304  -0.0137  -0.0154   0.0244   0.00    0.0
2023/06/15 01:43:30.000   3844059.6682    709661.6396   5023129.7896   6   8   0.0266   0.0238   0.0303  -0.0136  -0.0154   0.0244   0.00    0.0
2023/06/15 01:44:00.000   3844059.6682    709661.6390   5023129.7902   6   8   0.0265   0.0236   0.0302  -0.0136  -0.0153   0.0243   0.00    0.0
2023/06/15 01:44:30.000   3844059.6680    709661.6392   5023129.7903   6   8   0.0265   0.0235   0.0300  -0.0136  -0.0152   0.0243   0.00    0.0
2023/06/15 01:45:00.000   3844059.6685    709661.6390   5023129.7910   6   8   0.0264   0.0233   0.0299  -0.0135  -0.0151   0.0242   0.00    0.0
2023/06/15 01:45:30.000   3844059.6684    709661.6388   5023129.7910   6   8   0.0264   0.0232   0.0298  -0.0135  -0.0150   0.0241   0.00    0.0
2023/06/15 01:46:00.000   3844059.6687    709661.6385   5023129.7919   6   8   0.0263   0.0230   0.0297  -0.0135  -0.0149   0.0241   0.00    0.0
2023/06/15 01:46:30.000   3844059.6688    709661.6380   5023129.7928   6   8   0.0263   0.0228   0.0296  -0.0134  -0.0149   0.0240   0.00    0.0
2023/06/15 01:47:00.000   3844059.6690    709661.6374   5023129.7935   6   8   0.0262   0.0227   0.0295  -0.0134  -0.0148   0.0240   0.00    0.0
2023/06/15 01:47:30.000   3844059.6685    709661.6373   5023129.7931   6   8   0.0262   0.0225   0.0293  -0.0134  -0.0147   0.0239   0.00    0.0
2023/06/15 01:48:00.000   3844059.6679    709661.6371   5023129.7929   6   8   0.0261   0.0224   0.0292  -0.0134  -0.0146   0.0239   0.00    0.0
2023/06/15 01:48:30.000   3844059.6679    709661.6367   5023129.7933   6   8   0.0261   0.0223   0.0291  -0.0133  -0.0145   0.0238   0.00    0.0
2023/06/15 01:49:00.000   3844059.6680    709661.6369   5023129.7934   6   8   0.0260   0.0221   0.0290  -0.0133  -0.0144   0.0237   0.00    0.0
2023/06/15 01:49:30.000   3844059.6680    709661.6380   5023129.7925   6   8   0.0260   0.0220   0.0288  -0.0133  -0.0144   0.0237   0.00    0.0
2023/06/15 01:50:00.000   3844059.6682    709661.6383   5023129.7930   6   8   0.0259   0.0218   0.0287  -0.0133  -0.0143   0.0236   0.00    0.0
2023/06/15 01:50:30.000   3844059.6678    709661.6381   5023129.7924   6   8   0.0258   0.0217   0.0286  -0.0132  -0.0142   0.0235   0.00    0.0
2023/06/15 01:51:00.000   3844059.6679    709661.6384   5023129.7923   6   8   0.0258   0.0216   0.0285  -0.0132  -0.0141   0.0234   0.00    0.0
2023/06/15 01:51:30.000   3844059.6673    709661.6385   5023129.7914   6   8   0.0257   0.0214   0.0283  -0.0132  -0.0141   0.0234   0.00    0.0
2023/06/15 01:52:00.000   3844059.6668    709661.6384   5023129.7909   6   8   0.0256   0.0213   0.0282  -0.0132  -0.0140   0.0233   0.00    0.0
2023/06/15 01:52:30.000   3844059.6665    709661.6379   5023129.7905   6   8   0.0256   0.0212   0.0281  -0.0131  -0.0139   0.0233   0.00    0.0
2023/06/15 01:53:00.000   3844059.6664    709661.6377   5023129.7907   6   8   0.0255   0.0211   0.0280  -0.0131  -0.0138   0.0232   0.00    0.0
2023/06/15 01:53:30.000   3844059.6664    709661.6379   5023129.7909   6   8   0.0255   0.0209   0.0280  -0.0131  -0.0137   0.0232   0.00    0.0
2023/06/15 01:54:00.000   3844059.6665    709661.6377   5023129.7911   6   8   0.0254   0.0208   0.0279  -0.0130  -0.0137   0.0231   0.00    0.0
2023/06/15 01:54:30.000   3844059.6671    709661.6371   5023129.7920   6   8   0.0254   0.0207   0.0278  -0.0130  -0.0136   0.0231   0.00    0.0
2023/06/15 01:55:00.000   3844059.6667    709661.6372   5023129.7915   6   8   0.0253   0.0206   0.0277  -0.0130  -0.0135   0.0230   0.00    0.0
2023/06/15 01:55:30.000   3844059.6675    709661.6360   5023129.7925   6   8   0.0253   0.0205   0.0276  -0.0129  -0.0134   0.0229   0.00    0.0
2023/06/15 01:56:00.000   3844059.6679    709661.6358   5023129.7924   6   8   0.0252   0.0204   0.0275  -0.0129  -0.0133   0.0229   0.00    0.0
2023/06/15 01:56:30.000   3844059.6684    709661.6356   5023129.7917   6   8   0.0252   0.0203   0.0274  -0.0129  -0.0132   0.0228   0.00    0.0
2023/06/15 01:57:00.000   3844059.6686    709661.6351   5023129.7914   6   8   0.0251   0.0201   0.0273  -0.0128  -0.0132   0.0228   0.00    0.0
2023/06/15 01:57:30.000   3844059.6681    709661.6354   5023129.7898   6   8   0.0250   0.0200   0.0273  -0.0128  -0.0131   0.0227   0.00    0.0
2023/06/15 01:58:00.000   3844059.6692    709661.6347   5023129.7904   6   8   0.0250   0.0199   0.0272  -0.0128  -0.0130   0.0227   0.00    0.0
2023/06/15 01:58:30.000   3844059.6698    709661.6346   5023129.7904   6   7   0.0249   0.0198   0.0271  -0.0128  -0.0129   0.0226   0.00    0.0
2023/06/15 01:59:00.000   3844059.6694    709661.6344   5023129.7893   6   7   0.0249   0.0197   0.0270  -0.0127  -0.0128   0.0226   0.00    0.0
2023/06/15 01:59:30.000   3844059.6695    709661.6344   5023129.7888   6   7   0.0248   0.0196   0.0269  -0.0127  -0.0128   0.0225   0.00    0.0
2023/06/15 02:00:00.000   3844059.6707    709661.6337   5023129.7899   6   8   0.0248   0.0195   0.0268  -0.0127  -0.0127   0.0224   0.00    0.0
2023/06/15 02:00:30.000   3844059.6713    709661.6330   5023129.7909   6   8   0.0247   0.0194   0.0268  -0.0126  -0.0126   0.0224   0.00    0.0
2023/06/15 02:01:00.000   3844059.6724    709661.6332   5023129.7914   6   8   0.0247   0.0193   0.0267  -0.0126  -0.0125   0.0223   0.00    0.0
2023/06/15 02:01:30.000   3844059.6729    709661.6333   5023129.7914   6   8   0.0246   0.0192   0.0266  -0.0126  -0.0124   0.0223   0.00    0.0
2023/06/15 02:02:00.000   3844059.6736    709661.6338   5023129.7916   6   8   0.0245   0.0191   0.0265  -0.0125  -0.0124   0.0222   0.00    0.0
2023/06/15 02:02:30.000   3844059.6743    709661.6337   5023129.7919   6   8   0.0245   0.0190   0.0264  -0.0125  -0.0123   0.0222   0.00    0.0
2023/06/15 02:03:00.000   3844059.6751    709661.6336   5023129.7920   6   8   0.0244   0.0190   0.0263  -0.0125  -0.0122   0.0221   0.00    0.0
2023/06/15 02:03:30.000   3844059.6759    709661.6330   5023129.7929   6   8   0.0244   0.0189   0.0263  -0.0125  -0.0121   0.0220   0.00    0.0
2023/06/15 02:04:00.000   3844059.6764    709661.6334   5023129.7928   6   8   0.0243   0.0188   0.0262  -0.0124  -0.0120   0.0220   0.00    0.0
2023/06/15 02:04:30.000   3844059.6764    709661.6327   5023129.7932   6   8   0.0242   0.0187   0.0261  -0.0124  -0.0120   0.0219   0.00    0.0
2023/06/15 02:05:00.000   3844059.6766    709661.6324   5023129.7935   6   8   0.0242   0.0186   0.0260  -0.0124  -0.0119   0.0218   0.00    0.0
2023/06/15 02:05:30.000   3844059.6765    709661.6326   5023129.7930   6   8   0.0241   0.0185   0.0259  -0.0123  -0.0118   0.0218   0.00    0.0
2023/06/15 02:06:00.000   3844059.6759    709661.6333   5023129.7915   6   8   0.0241   0.0184   0.0258  -0.0123  -0.0117   0.0217   0.00    0.0
2023/06/15 02:06:30.000   3844059.6762    709661.6343   5023129.7907   6   8   0.0240   0.0184   0.0258  -0.0123  -0.0116   0.0216   0.00    0.0
2023/06/15 02:07:00.000   3844059.6766    709661.6335   5023129.7911   6   8   0.0239   0.0183   0.0257  -0.0122  -0.0116   0.0216   0.00    0.0
2023/06/15 02:07:30.000   3844059.6770    709661.6332   5023129.7919   6   8   0.0239   0.0182   0.0256  -0.0122  -0.0115   0.0215   0.00    0.0
2023/06/15 02:08:00.000   3844059.6772    709661.6333   5023129.7917   6   9   0.0238   0.0181   0.0255  -0.0122  -0.0114   0.0214   0.00    0.0
2023/06/15 02:08:30.000   3844059.6774    709661.6332   5023129.7919   6   9   0.0237   0.0181   0.0254  -0.0122  -0.0113   0.0214   0.00    0.0
2023/06/15 02:09:00.000   3844059.6778    709661.6336   5023129.7918   6   9   0.0237   0.0180   0.0253  -0.0121  -0.0113   0.0213   0.00    0.0
2023/06/15 02:09:30.000   3844059.6774    709661.6338   5023129.7906   6   9   0.0236   0.0179   0.0252  -0.0121  -0.0112   0.0212   0.00    0.0
2023/06/15 02:10:00.000   3844059.6777    709661.6338   5023129.7907   6   9   0.0235   0.0178   0.0251  -0.0121  -0.0111   0.0212   0.00    0.0
2023/06/15 02:10:30.000   3844059.6779    709661.6341   5023129.7899   6   9   0.0235   0.0178   0.0250  -0.0121  -0.0110   0.0211   0.00    0.0
2023/06/15 02:11:00.000   3844059.6784    709661.6342   5023129.7899   6   9   0.0234   0.0177   0.0249  -0.0120  -0.0110   0.0210   0.00    0.0
2023/06/15 02:11:30.000   3844059.6781    709661.6342   5023129.7894   6   9   0.0233   0.0176   0.0248  -0.0120  -0.0109   0.0209   0.00    0.0
2023/06/15 02:12:00.000   3844059.6784    709661.6340   5023129.7894   6   9   0.0233   0.0176   0.0247  -0.0120  -0.0108   0.0208   0.00    0.0
2023/06/15 02:12:30.000   3844059.6785    709661.6339   5023129.7894   6   9   0.0232   0.0175   0.0247  -0.0120  -0.0108   0.0208   0.00    0.0
2023/06/15 02:13:00.000   3844059.6777    709661.6339   5023129.7881   6   9   0.0231   0.0174   0.0246  -0.0119  -0.0107   0.0207   0.00    0.0
2023/06/15 02:13:30.000   3844059.6782    709661.6330   5023129.7888   6   9   0.0231   0.0174   0.0245  -0.0119  -0.0106   0.0206   0.00    0.0
2023/06/15 02:14:00.000   3844059.6784    709661.6326   5023129.7889   6   9   0.0230   0.0173   0.0244  -0.0119  -0.0106   0.0205   0.00    0.0
2023/06/15 02:14:30.000   3844059.6786    709661.6326   5023129.7888   6   9   0.0229   0.0172   0.0243  -0.0119  -0.0105   0.0204   0.00    0.0
2023/06/15 02:15:00.000   3844059.6793    709661.6323   5023129.7897   6   9   0.0229   0.0172   0.0242  -0.0118  -0.0104   0.0204   0.00    0.0
2023/06/15 02:15:30.000   3844059.6795    709661.6318   5023129.7899   6   9   0.0228   0.0171   0.0241  -0.0118  -0.0104   0.0203   0.00    0.0
2023/06/15 02:16:00.000   3844059.6795    709661.6318   5023129.7893   6   9   0.0227   0.0170   0.0239  -0.0118  -0.0103   0.0202   0.00    0.0
2023/06/15 02:16:30.000   3844059.6795    709661.6320   5023129.7887   6   9   0.0226   0.0170   0.0238  -0.0118  -0.0102   0.0201   0.00    0.0
2023/06/15 02:17:00.000   3844059.6795    709661.6321   5023129.7884   6   9   0.0226   0.0169   0.0237  -0.0118  -0.0102   0.0200   0.00    0.0
2023/06/15 02:17:30.000   3844059.6787    709661.6322   5023129.7875   6   9   0.0225   0.0169   0.0236  -0.0117  -0.0101   0.0199   0.00    0.0
2023/06/15 02:18:00.000   3844059.6790    709661.6318   5023129.7880   6   9   0.0224   0.0168   0.0235  -0.0117  -0.0101   0.0199   0.00    0.0
2023/06/15 02:18:30.000   3844059.6790    709661.6320   5023129.7878   6   9   0.0224   0.0168   0.0234  -0.0117  -0.0100   0.0198   0.00    0.0
2023/06/15 02:19:00.000   3844059.6792    709661.6323   5023129.7874   6   9   0.0223   0.0167   0.0233  -0.0117  -0.0099   0.0197   0.00    0.0
2023/06/15 02:19:30.000   3844059.6794    709661.6322   5023129.7872   6   9   0.0222   0.0166   0.0232  -0.0117  -0.0099   0.0196   0.00    0.0
2023/06/15 02:20:00.000   3844059.6800    709661.6318   5023129.7879   6   9   0.0222   0.0166   0.0231  -0.0116  -0.0098   0.0195   0.00    0.0
2023/06/15 02:20:30.000   3844059.6802    709661.6318   5023129.7877   6   9   0.0221   0.0165   0.0230  -0.0116  -0.0098   0.0194   0.00    0.0
2023/06/15 02:21:00.000   3844059.6811    709661.6313   5023129.7885   6   9   0.0220   0.0165   0.0229  -0.0116  -0.0097   0.0193   0.00    0.0
2023/06/15 02:21:30.000   3844059.6812    709661.6313   5023129.7881   6   9   0.0219   0.0164   0.0228  -0.0116  -0.0097   0.0192   0.00    0.0
2023/06/15 02:22:00.000   3844059.6812    709661.6313   5023129.7876   6   9   0.0219   0.0164   0.0227  -0.0116  -0.0096   0.0192   0.00    0.0
2023/06/15 02:22:30.000   3844059.6816    709661.6308   5023129.7882   6   9   0.0218   0.0163   0.0226  -0.0116  -0.0096   0.0191   0.00    0.0
2023/06/15 02:23:00.000   3844059.6819    709661.6309   5023129.7880   6   9   0.0217   0.0163   0.0224  -0.0116  -0.0095   0.0190   0.00    0.0
2023/06/15 02:23:30.000   3844059.6825    709661.6306   5023129.7886   6   9   0.0217   0.0162   0.0223  -0.0115  -0.0095   0.0189   0.00    0.0
2023/06/15 02:24:00.000   3844059.6825    709661.6305   5023129.7884   6   9   0.0216   0.0162   0.0222  -0.0115  -0.0094   0.0188   0.00    0.0
2023/06/15 02:24:30.000   3844059.6825    709661.6307   5023129.7880   6   9   0.0215   0.0161   0.0221  -0.0115  -0.0094   0.0187   0.00    0.0
2023/06/15 02:25:00.000   3844059.6824    709661.6307   5023129.7881   6   8   0.0215   0.0161   0.0220  -0.0115  -0.0094   0.0186   0.00    0.0
2023/06/15 02:25:30.000   3844059.6819    709661.6306   5023129.7875   6   8   0.0214   0.0161   0.0219  -0.0115  -0.0093   0.0186   0.00    0.0
2023/06/15 02:26:00.000   3844059.6813    709661.6310   5023129.7865   6   8   0.0214   0.0160   0.0218  -0.0115  -0.0093   0.0185   0.00    0.0
2023/06/15 02:26:30.000   3844059.6805    709661.6312   5023129.7851   6   8   0.0213   0.0160   0.0217  -0.0115  -0.0092   0.0184   0.00    0.0
2023/06/15 02:27:00.000   3844059.6808    709661.6309   5023129.7855   6   8   0.0212   0.0159   0.0216  -0.0115  -0.0092   0.0183   0.00    0.0
2023/06/15 02:27:30.000   3844059.6824    709661.6305   5023129.7872   6   8   0.0212   0.0159   0.0215  -0.0114  -0.0091   0.0183   0.00    0.0
2023/06/15 02:28:00.000   3844059.6824    709661.6309   5023129.7867   6   8   0.0211   0.0158   0.0214  -0.0114  -0.0091   0.0182   0.00    0.0
2023/06/15 02:28:30.000   3844059.6820    709661.6313   5023129.7859   6   8   0.0211   0.0158   0.0213  -0.0114  -0.0091   0.0181   0.00    0.0
2023/06/15 02:29:00.000   3844059.6821    709661.6312   5023129.7861   6   8   0.0210   0.0157   0.0212  -0.0114  -0.0090   0.0180   0.00    0.0
2023/06/15 02:29:30.000   3844059.6825    709661.6313   5023129.7864   6   8   0.0209   0.0157   0.0211  -0.0114  -0.0090   0.0179   0.00    0.0
2023/06/15 02:30:00.000   3844059.6832    709661.6313   5023129.7872   6   8   0.0209   0.0157   0.0210  -0.0114  -0.0090   0.0179   0.00    0.0
2023/06/15 02:30:30.000   3844059.6828    709661.6315   5023129.7866   6   8   0.0208   0.0156   0.0209  -0.0114  -0.0089   0.0178   0.00    0.0
2023/06/15 02:31:00.000   3844059.6833    709661.6314   5023129.7872   6   8   0.0208   0.0156   0.0208  -0.0114  -0.0089   0.0177   0.00    0.0
2023/06/15 02:31:30.000   3844059.6831    709661.6312   5023129.7872   6   8   0.0207   0.0155   0.0208  -0.0114  -0.0089   0.0176   0.00    0.0
2023/06/15 02:32:00.000   3844059.6826    709661.6312   5023129.7866   6   8   0.0206   0.0155   0.0207  -0.0114  -0.0088   0.0176   0.00    0.0
2023/06/15 02:32:30.000   3844059.6825    709661.6312   5023129.7864   6   8   0.0206   0.0155   0.0206  -0.0113  -0.0088   0.0175   0.00    0.0
2023/06/15 02:33:00.000   3844059.6832    709661.6311   5023129.7873   6   8   0.0205   0.0154   0.0205  -0.0113  -0.0088   0.0174   0.00    0.0
2023/06/15 02:33:30.000   3844059.6834    709661.6317   5023129.7868   6   8   0.0205   0.0154   0.0204  -0.0113  -0.0088   0.0174   0.00    0.0
2023/06/15 02:34:00.000   3844059.6830    709661.6318   5023129.7861   6   7   0.0204   0.0154   0.0203  -0.0113  -0.0087   0.0173   0.00    0.0
2023/06/15 02:34:30.000   3844059.6834    709661.6316   5023129.7867   6   7   0.0204   0.0153   0.0203  -0.0113  -0.0087   0.0173   0.00    0.0
2023/06/15 02:35:00.000   3844059.6838    709661.6315   5023129.7870   6   7   0.0204   0.0153   0.0202  -0.0113  -0.0086   0.0172   0.00    0.0
2023/06/15 02:35:30.000   3844059.6840    709661.6315   5023129.7871   6   7   0.0203   0.0152   0.0202  -0.0113  -0.0086   0.0172   0.00    0.0
2023/06/15 02:36:00.000   3844059.6845    709661.6313   5023129.7879   6   7   0.0203   0.0152   0.0201  -0.0113  -0.0085   0.0172   0.00    0.0
2023/06/15 02:36:30.000   3844059.6851    709661.6310   5023129.7886   6   7   0.0203   0.0152   0.0201  -0.0112  -0.0085   0.0171   0.00    0.0
2023/06/15 02:37:00.000   3844059.6848    709661.6307   5023129.7887   6   7   0.0202   0.0151   0.0200  -0.0112  -0.0085   0.0171   0.00    0.0
2023/06/15 02:37:30.000   3844059.6843    709661.6306   5023129.7879   6   7   0.0202   0.0151   0.0200  -0.0112  -0.0084   0.0171   0.00    0.0
2023/06/15 02:38:00.000   3844059.6843    709661.6304   5023129.7880   6   7   0.0202   0.0151   0.0199  -0.0112  -0.0084   0.0170   0.00    0.0
2023/06/15 02:38:30.000   3844059.6851    709661.6301   5023129.7890   6   7   0.0202   0.0150   0.0199  -0.0112  -0.0084   0.0170   0.00    0.0
2023/06/15 02:39:00.000   3844059.6856    709661.6299   5023129.7893   6   7   0.0201   0.0150   0.0198  -0.0112  -0.0083   0.0170   0.00    0.0
2023/06/15 02:39:30.000   3844059.6862    709661.6294   5023129.7898   6   7   0.0201   0.0150   0.0198  -0.0111  -0.0083   0.0169   0.00    0.0
2023/06/15 02:40:00.000   3844059.6863    709661.6291   5023129.7896   6   7   0.0201   0.0150   0.0197  -0.0111  -0.0082   0.0169   0.00    0.0
2023/06/15 02:40:30.000   3844059.6867    709661.6288   5023129.7902   6   7   0.0200   0.0149   0.0197  -0.0111  -0.0082   0.0169   0.00    0.0
2023/06/15 02:41:00.000   3844059.6872    709661.6286   5023129.7907   6   7   0.0200   0.0149   0.0197  -0.0111  -0.0082   0.0168   0.00    0.0
2023/06/15 02:41:30.000   3844059.6874    709661.6285   5023129.7909   6   7   0.0200   0.0149   0.0196  -0.0111  -0.0081   0.0168   0.00    0.0
2023/06/15 02:42:00.000   3844059.6873    709661.6284   5023129.7906   6   7   0.0199   0.0148   0.0196  -0.0111  -0.0081   0.0168   0.00    0.0
2023/06/15 02:42:30.000   3844059.6874    709661.6283   5023129.7906   6   7   0.0199   0.0148   0.0195  -0.0110  -0.0080   0.0167   0.00    0.0
2023/06/15 02:43:00.000   3844059.6876    709661.6282   5023129.7907   6   7   0.0199   0.0148   0.0195  -0.0110  -0.0080   0.0167   0.00    0.0
2023/06/15 02:43:30.000   3844059.6879    709661.6283   5023129.7907   6   7   0.0198   0.0147   0.0194  -0.0110  -0.0080   0.0167   0.00    0.0
2023/06/15 02:44:00.000   3844059.6879    709661.6281   5023129.7909   6   7   0.0198   0.0147   0.0194  -0.0110  -0.0079   0.0167   0.00    0.0
2023/06/15 02:44:30.000   3844059.6886    709661.6279   5023129.7919   6   7   0.0198   0.0147   0.0193  -0.0110  -0.0079   0.0166   0.00    0.0
2023/06/15 02:45:00.000   3844059.6885    709661.6278   5023129.7918   6   7   0.0198   0.0147   0.0193  -0.0110  -0.0079   0.0166   0.00    0.0
2023/06/15 02:45:30.000   3844059.6888    709661.6278   5023129.7922   6   7   0.0197   0.0146   0.0193  -0.0109  -0.0078   0.0166   0.00    0.0
2023/06/15 02:46:00.000   3844059.6886    709661.6278   5023129.7920   6   7   0.0197   0.0146   0.0192  -0.0109  -0.0078   0.0165   0.00    0.0
2023/06/15 02:46:30.000   3844059.6885    709661.6275   5023129.7918   6   7   0.0197   0.0146   0.0192  -0.0109  -0.0078   0.0165   0.00    0.0
2023/06/15 02:47:00.000   3844059.6889    709661.6277   5023129.7917   6   7   0.0196   0.0145   0.0191  -0.0109  -0.0077   0.0165   0.00    0.0
2023/06/15 02:47:30.000   3844059.6887    709661.6276   5023129.7915   6   7   0.0196   0.0145   0.0191  -0.0109  -0.0077   0.0164   0.00    0.0
2023/06/15 02:48:00.000   3844059.6892    709661.6274   5023129.7918   6   7   0.0196   0.0145   0.0190  -0.0109  -0.0077   0.0164   0.00    0.0
2023/06/15 02:48:30.000   3844059.6893    709661.6273   5023129.7919   6   7   0.0195   0.0145   0.0190  -0.0108  -0.0076   0.0164   0.00    0.0
2023/06/15 02:49:00.000   3844059.6892    709661.6274   5023129.7914   6   7   0.0195   0.0144   0.0190  -0.0108  -0.0076   0.0164   0.00    0.0
2023/06/15 02:49:30.000   3844059.6894    709661.6273   5023129.7914   6   7   0.0195   0.0144   0.0189  -0.0108  -0.0076   0.0163   0.00    0.0
2023/06/15 02:50:00.000   3844059.6898    709661.6272   5023129.7916   6   7   0.0195   0.0144   0.0189  -0.0108  -0.0076   0.0163   0.00    0.0
2023/06/15 02:50:30.000   3844059.6897    709661.6271   5023129.7912   6   7   0.0194   0.0144   0.0188  -0.0108  -0.0075   0.0163   0.00    0.0
2023/06/15 02:51:00.000   3844059.6896    709661.6271   5023129.7911   6   7   0.0194   0.0143   0.0188  -0.0108  -0.0075   0.0162   0.00    0.0
2023/06/15 02:51:30.000   3844059.6898    709661.6270   5023129.7914   6   7   0.0194   0.0143   0.0187  -0.0107  -0.0075   0.0162   0.00    0.0
2023/06/15 02:52:00.000   3844059.6898    709661.6268   5023129.7914   6   7   0.0193   0.0143   0.0187  -0.0107  -0.0074   0.0162   0.00    0.0
2023/06/15 02:52:30.000   3844059.6896    709661.6266   5023129.7910   6   7   0.0193   0.0143   0.0187  -0.0107  -0.0074   0.0162   0.00    0.0
2023/06/15 02:53:00.000   3844059.6897    709661.6264   5023129.7909   6   7   0.0193   0.0142   0.0186  -0.0107  -0.0074   0.0161   0.00    0.0
2023/06/15 02:53:30.000   3844059.6900    709661.6262   5023129.7916   6   7   0.0193   0.0142   0.0186  -0.0107  -0.0074   0.0161   0.00    0.0
2023/06/15 02:54:00.000   3844059.6906    709661.6261   5023129.7922   6   8   0.0192   0.0142   0.0185  -0.0107  -0.0073   0.0161   0.00    0.0
2023/06/15 02:54:30.000   3844059.6908    709661.6260   5023129.7924   6   8   0.0192   0.0142   0.0185  -0.0106  -0.0073   0.0160   0.00    0.0
2023/06/15 02:55:00.000   3844059.6908    709661.6259   5023129.7917   6   8   0.0192   0.0141   0.0184  -0.0106  -0.0073   0.0160   0.00    0.0
2023/06/15 02:55:30.000   3844059.6913    709661.6248   5023129.7924   6   7   0.0192   0.0141   0.0184  -0.0106  -0.0073   0.0160   0.00    0.0
2023/06/15 02:56:00.000   3844059.6916    709661.6240   5023129.7923   6   8   0.0191   0.0141   0.0184  -0.0106  -0.0073   0.0160   0.00    0.0
2023/06/15 02:56:30.000   3844059.6920    709661.6230   5023129.7926   6   8   0.0191   0.0141   0.0183  -0.0106  -0.0072   0.0159   0.00    0.0
2023/06/15 02:57:00.000   3844059.6926    709661.6222   5023129.7927   6   8   0.0191   0.0140   0.0183  -0.0106  -0.0072   0.0159   0.00    0.0
2023/06/15 02:57:30.000   3844059.6924    709661.6217   5023129.7930   6   7   0.0191   0.0140   0.0183  -0.0106  -0.0072   0.0159   0.00    0.0
2023/06/15 02:58:00.000   3844059.6922    709661.6212   5023129.7931   6   7   0.0191   0.0140   0.0182  -0.0106  -0.0072   0.0159   0.00    0.0
2023/06/15 02:58:30.000   3844059.6920    709661.6208   5023129.7934   6   7   0.0191   0.0140   0.0182  -0.0105  -0.0072   0.0159   0.00    0.0
2023/06/15 02:59:00.000   3844059.6918    709661.6204   5023129.7934   6   7   0.0190   0.0140   0.0182  -0.0105  -0.0071   0.0159   0.00    0.0
2023/06/15 02:59:30.000   3844059.6915    709661.6202   5023129.7932   6   7   0.0190   0.0140   0.0181  -0.0105  -0.0071   0.0158   0.00    0.0
2023/06/15 03:00:00.000   3844059.6916    709661.6199   5023129.7935   6   7   0.0190   0.0140   0.0181  -0.0105  -0.0071   0.0158   0.00    0.0
2023/06/15 03:00:30.000   3844059.6914    709661.6196   5023129.7934   6   7   0.0190   0.0139   0.0180  -0.0105  -0.0071   0.0158   0.00    0.0
2023/06/15 03:01:00.000   3844059.6910    709661.6193   5023129.7932   6   7   0.0190   0.0139   0.0180  -0.0105  -0.0071   0.0158   0.00    0.0
2023/06/15 03:01:30.000   3844059.6908    709661.6189   5023129.7933   6   7   0.0190   0.0139   0.0180  -0.0105  -0.0071   0.0157   0.00    0.0
2023/06/15 03:02:00.000   3844059.6907    709661.6186   5023129.7937   6   7   0.0190   0.0139   0.0179  -0.0105  -0.0070   0.0157   0.00    0.0
2023/06/15 03:02:30.000   3844059.6906    709661.6182   5023129.7940   6   6   0.0189   0.0139   0.0179  -0.0105  -0.0070   0.0157   0.00    0.0
2023/06/15 03:03:00.000   3844059.6904    709661.6179   5023129.7942   6   6   0.0189   0.0139   0.0178  -0.0105  -0.0070   0.0157   0.00    0.0
2023/06/15 03:03:30.000   3844059.6902    709661.6177   5023129.7943   6   7   0.0189   0.0138   0.0178  -0.0105  -0.0070   0.0157   0.00    0.0
2023/06/15 03:04:00.000   3844059.6899    709661.6173   5023129.7942   6   7   0.0189   0.0138   0.0178  -0.0105  -0.0070   0.0156   0.00    0.0
2023/06/15 03:04:30.000   3844059.6898    709661.6172   5023129.7942   6   7   0.0189   0.0138   0.0177  -0.0105  -0.0070   0.0156   0.00    0.0
2023/06/15 03:05:00.000   3844059.6897    709661.6169   5023129.7947   6   7   0.0189   0.0138   0.0177  -0.0105  -0.0070   0.0156   0.00    0.0
2023/06/15 03:05:30.000   3844059.6897    709661.6166   5023129.7951   6   7   0.0189   0.0138   0.0176  -0.0105  -0.0069   0.0156   0.00    0.0
2023/06/15 03:06:00.000   3844059.6895    709661.6164   5023129.7949   6   7   0.0188   0.0138   0.0176  -0.0105  -0.0069   0.0155   0.00    0.0
2023/06/15 03:06:30.000   3844059.6896    709661.6164   5023129.7955   6   6   0.0188   0.0138   0.0176  -0.0105  -0.0069   0.0155   0.00    0.0
2023/06/15 03:07:00.000   3844059.6895    709661.6162   5023129.7956   6   7   0.0188   0.0138   0.0175  -0.0105  -0.0069   0.0155   0.00    0.0
2023/06/15 03:07:30.000   3844059.6894    709661.6161   5023129.7957   6   7   0.0188   0.0137   0.0175  -0.0105  -0.0069   0.0155   0.00    0.0
2023/06/15 03:08:00.000   3844059.6894    709661.6159   5023129.7959   6   7   0.0188   0.0137   0.0174  -0.0105  -0.0069   0.0154   0.00    0.0
2023/06/15 03:08:30.000   3844059.6891    709661.6158   5023129.7957   6   7   0.0188   0.0137   0.0174  -0.0105  -0.0069   0.0154   0.00    0.0
2023/06/15 03:09:00.000   3844059.6889    709661.6156   5023129.7955   6   7   0.0188   0.0137   0.0173  -0.0105  -0.0069   0.0154   0.00    0.0
2023/06/15 03:09:30.000   3844059.6888    709661.6155   5023129.7954   6   7   0.0187   0.0137   0.0173  -0.0105  -0.0069   0.0154   0.00    0.0
2023/06/15 03:10:00.000   3844059.6888    709661.6154   5023129.7958   6   6   0.0187   0.0137   0.0173  -0.0105  -0.0069   0.0154   0.00    0.0
2023/06/15 03:10:30.000   3844059.6888    709661.6152   5023129.7958   6   5   0.0187   0.0137   0.0172  -0.0105  -0.0068   0.0153   0.00    0.0
2023/06/15 03:11:00.000   3844059.6885    709661.6151   5023129.7956   6   5   0.0187   0.0137   0.0172  -0.0104  -0.0068   0.0153   0.00    0.0
2023/06/15 03:11:30.000   3844059.6884    709661.6150   5023129.7955   6   5   0.0187   0.0136   0.0172  -0.0104  -0.0068   0.0153   0.00    0.0
2023/06/15 03:12:00.000   3844059.6883    709661.6149   5023129.7956   6   5   0.0187   0.0136   0.0171  -0.0104  -0.0068   0.0153   0.00    0.0
2023/06/15 03:12:30.000   3844059.6883    709661.6148   5023129.7960   6   5   0.0187   0.0136   0.0171  -0.0104  -0.0067   0.0153   0.00    0.0
2023/06/15 03:13:00.000   3844059.6884    709661.6147   5023129.7962   6   5   0.0187   0.0136   0.0171  -0.0104  -0.0067   0.0153   0.00    0.0
2023/06/15 03:13:30.000   3844059.6883    709661.6146   5023129.7963   6   5   0.0187   0.0136   0.0171  -0.0104  -0.0067   0.0152   0.00    0.0
2023/06/15 03:14:00.000   3844059.6883    709661.6145   5023129.7965   6   5   0.0186   0.0136   0.0170  -0.0104  -0.0067   0.0152   0.00    0.0
2023/06/15 03:14:30.000   3844059.6882    709661.6144   5023129.7962   6   5   0.0186   0.0136   0.0170  -0.0104  -0.0067   0.0152   0.00    0.0
2023/06/15 03:15:00.000   3844059.6881    709661.6144   5023129.7962   6   5   0.0186   0.0136   0.0170  -0.0104  -0.0066   0.0152   0.00    0.0
2023/06/15 03:15:30.000   3844059.6881    709661.6144   5023129.7964   6   5   0.0186   0.0136   0.0169  -0.0104  -0.0066   0.0152   0.00    0.0
2023/06/15 03:16:00.000   3844059.6879    709661.6144   5023129.7962   6   5   0.0186   0.0135   0.0169  -0.0103  -0.0066   0.0152   0.00    0.0
2023/06/15 03:16:30.000   3844059.6879    709661.6143   5023129.7962   6   5   0.0186   0.0135   0.0169  -0.0103  -0.0066   0.0152   0.00    0.0
2023/06/15 03:17:00.000   3844059.6878    709661.6142   5023129.7960   6   5   0.0186   0.0135   0.0168  -0.0103  -0.0066   0.0151   0.00    0.0
2023/06/15 03:17:30.000   3844059.6878    709661.6142   5023129.7959   6   5   0.0186   0.0135   0.0168  -0.0103  -0.0065   0.0151   0.00    0.0
2023/06/15 03:18:00.000   3844059.6876    709661.6142   5023129.7958   6   5   0.0186   0.0135   0.0168  -0.0103  -0.0065   0.0151   0.00    0.0
2023/06/15 03:18:30.000   3844059.6875    709661.6142   5023129.7959   6   5   0.0186   0.0135   0.0168  -0.0103  -0.0065   0.0151   0.00    0.0
2023/06/15 03:19:00.000   3844059.6875    709661.6143   5023129.7961   6   5   0.0185   0.0135   0.0167  -0.0103  -0.0065   0.0151   0.00    0.0
2023/06/15 03:19:30.000   3844059.6874    709661.6142   5023129.7960   6   5   0.0185   0.0135   0.0167  -0.0103  -0.0065   0.0151   0.00    0.0
2023/06/15 03:20:00.000   3844059.6874    709661.6141   5023129.7958   6   5   0.0185   0.0135   0.0167  -0.0102  -0.0064   0.0151   0.00    0.0
2023/06/15 03:20:30.000   3844059.6874    709661.6140   5023129.7958   6   5   0.0185   0.0135   0.0166  -0.0102  -0.0064   0.0150   0.00    0.0
2023/06/15 03:21:00.000   3844059.6874    709661.6140   5023129.7958   6   5   0.0185   0.0134   0.0166  -0.0102  -0.0064   0.0150   0.00    0.0
2023/06/15 03:21:30.000   3844059.6873    709661.6140   5023129.7959   6   5   0.0185   0.0134   0.0166  -0.0102  -0.0064   0.0150   0.00    0.0
2023/06/15 03:22:00.000   3844059.6874    709661.6140   5023129.7961   6   5   0.0185   0.0134   0.0165  -0.0102  -0.0064   0.0150   0.00    0.0
2023/06/15 03:22:30.000   3844059.6874    709661.6139   5023129.7961   6   5   0.0185   0.0134   0.0165  -0.0102  -0.0064   0.0150   0.00    0.0
2023/06/15 03:23:00.000   3844059.6873    709661.6139   5023129.7959   6   5   0.0185   0.0134   0.0165  -0.0102  -0.0063   0.0150   0.00    0.0
