% program   : RTKLIB ver.2.4.3
% inp file  : /home/david/Documents/rtklib_b34_my/rtkpppB2b/batchB2b/*.22o
% inp file  : /home/david/Documents/rtklib_b34_my/rtkpppB2b/batchB2b/*.22n
% inp file  : /home/david/Documents/rtklib_b34_my/rtkpppB2b/batchB2b/*.22s
% obs start : 2022/01/25 00:00:00.0 GPST (week2194 172800.0s)
% obs end   : 2022/01/27 23:59:30.0 GPST (week2194 431970.0s)
% pos mode  : PPP Kinematic
% solution  : Forward
% elev mask : 20.0 deg
% dynamics  : off
% tidecorr  : on
% tropo opt : Estimate ZTD
% ephemeris : Broadcast+SSR APC
% navi sys  : BDS
% antenna1  : TRM59800.00     NONE  ( 0.0000  0.0000  0.0000)
%
% (x/y/z-ecef=WGS84,Q=1:fix,2:float,3:sbas,4:dgps,5:single,6:ppp,ns=# of satellites)
%  GPST                      x-ecef(m)      y-ecef(m)      z-ecef(m)   Q  ns   sdx(m)   sdy(m)   sdz(m)  sdxy(m)  sdyz(m)  sdzx(m) age(s)  ratio
2022/01/25 00:18:00.000  -2279831.6041   5004708.4159   3219780.2802   6   7   7.2313   9.9223   5.7637  -6.6441   6.5101  -4.7163   0.00    0.0
2022/01/25 00:18:30.000  -2279831.9409   5004708.7025   3219780.1895   6   7   4.7963   6.5783   3.8451  -4.2157   4.2787  -3.0412   0.00    0.0
2022/01/25 00:19:00.000  -2279831.9158   5004708.6380   3219779.7161   6   7   3.5914   4.9262   2.8931  -2.9259   3.1604  -2.1811   0.00    0.0
2022/01/25 00:19:30.000  -2279831.3871   5004707.9515   3219778.9840   6   7   2.8410   3.8998   2.2853  -2.0688   2.4554  -1.6329   0.00    0.0
2022/01/25 00:20:00.000  -2279830.9125   5004707.4006   3219778.3994   6   7   2.3356   3.2097   1.8599  -1.4478   1.9746  -1.2584   0.00    0.0
2022/01/25 00:20:30.000  -2279830.5230   5004707.0155   3219778.2481   6   7   1.9798   2.7244   1.5477  -0.9610   1.6325  -0.9923   0.00    0.0
2022/01/25 00:21:00.000  -2279830.4068   5004706.6609   3219778.0720   6   7   1.7207   2.3710   1.3113  -0.5208   1.3812  -0.7969   0.00    0.0
2022/01/25 00:21:30.000  -2279830.2545   5004706.4335   3219777.9324   6   7   1.5263   2.1058   1.1279   0.3170   1.1919  -0.6491   0.00    0.0
2022/01/25 00:22:00.000  -2279830.1424   5004706.2855   3219777.8446   6   7   1.3764   1.9014   0.9831   0.5610   1.0459  -0.5344   0.00    0.0
2022/01/25 00:22:30.000  -2279830.1478   5004706.1695   3219777.7504   6   7   1.2582   1.7400   0.8667   0.6615   0.9314  -0.4429   0.00    0.0
2022/01/25 00:23:00.000  -2279830.1063   5004706.1501   3219777.7183   6   7   1.1630   1.6099   0.7720   0.7114   0.8399  -0.3683   0.00    0.0
2022/01/25 00:23:30.000  -2279830.0329   5004706.1560   3219777.6563   6   7   1.0847   1.5030   0.6939   0.7357   0.7658  -0.3059   0.00    0.0
2022/01/25 00:24:00.000  -2279830.0316   5004706.0409   3219777.6047   6   7   1.0193   1.4137   0.6288   0.7456   0.7051  -0.2526   0.00    0.0
2022/01/25 00:24:30.000  -2279829.9956   5004705.9453   3219777.5546   6   7   0.9639   1.3380   0.5741   0.7469   0.6546  -0.2056   0.00    0.0
2022/01/25 00:25:00.000  -2279829.9619   5004705.9102   3219777.5280   6   7   0.9162   1.2731   0.5277   0.7428   0.6124  -0.1627   0.00    0.0
2022/01/25 00:25:30.000  -2279829.9579   5004705.8765   3219777.4979   6   7   0.8747   1.2167   0.4880   0.7353   0.5767  -0.1215   0.00    0.0
2022/01/25 00:26:00.000  -2279829.9671   5004705.7696   3219777.4603   6   7   0.8382   1.1672   0.4538   0.7257   0.5462  -0.0772   0.00    0.0
2022/01/25 00:26:30.000  -2279829.9833   5004705.7069   3219777.4221   6   7   0.8058   1.1233   0.4242   0.7147   0.5200   0.0263   0.00    0.0
2022/01/25 00:27:00.000  -2279829.9462   5004705.6769   3219777.3765   6   7   0.7767   1.0842   0.3985   0.7030   0.4974   0.0759   0.00    0.0
2022/01/25 00:27:30.000  -2279829.9357   5004705.6055   3219777.3519   6   7   0.7505   1.0491   0.3759   0.6909   0.4777   0.0983   0.00    0.0
2022/01/25 00:28:00.000  -2279829.9243   5004705.5834   3219777.3472   6   7   0.7266   1.0173   0.3561   0.6785   0.4604   0.1125   0.00    0.0
2022/01/25 00:28:30.000  -2279829.9222   5004705.5603   3219777.3415   6   7   0.7048   0.9884   0.3385   0.6662   0.4452   0.1223   0.00    0.0
2022/01/25 00:29:00.000  -2279829.9157   5004705.5507   3219777.3377   6   7   0.6847   0.9620   0.3230   0.6540   0.4318   0.1294   0.00    0.0
2022/01/25 00:29:30.000  -2279829.9146   5004705.5468   3219777.3409   6   7   0.6660   0.9377   0.3091   0.6420   0.4198   0.1346   0.00    0.0
2022/01/25 00:30:00.000  -2279829.9196   5004705.5423   3219777.3399   6   7   0.6487   0.9154   0.2967   0.6302   0.4091   0.1385   0.00    0.0
2022/01/25 00:30:30.000  -2279829.9331   5004705.5332   3219777.3365   6   7   0.6325   0.8947   0.2856   0.6187   0.3996   0.1414   0.00    0.0
2022/01/25 00:31:00.000  -2279829.9509   5004705.5026   3219777.3326   6   7   0.6173   0.8754   0.2757   0.6074   0.3909   0.1435   0.00    0.0
2022/01/25 00:31:30.000  -2279829.9428   5004705.4676   3219777.3299   6   8   0.6022   0.8571   0.2667   0.5958   0.3831   0.1449   0.00    0.0
2022/01/25 00:32:00.000  -2279829.9245   5004705.4654   3219777.3289   6   8   0.5867   0.8385   0.2579   0.5864   0.3747   0.1483   0.00    0.0
2022/01/25 00:32:30.000  -2279829.9182   5004705.4377   3219777.3125   6   8   0.5729   0.8216   0.2501   0.5763   0.3675   0.1499   0.00    0.0
2022/01/25 00:33:00.000  -2279829.9258   5004705.4059   3219777.2953   6   8   0.5600   0.8058   0.2431   0.5663   0.3610   0.1508   0.00    0.0
2022/01/25 00:33:30.000  -2279829.9308   5004705.4282   3219777.3027   6   8   0.5479   0.7908   0.2367   0.5566   0.3549   0.1515   0.00    0.0
2022/01/25 00:34:00.000  -2279829.9403   5004705.4237   3219777.3017   6   8   0.5363   0.7766   0.2307   0.5472   0.3493   0.1519   0.00    0.0
2022/01/25 00:34:30.000  -2279829.9525   5004705.4099   3219777.3051   6   8   0.5253   0.7630   0.2252   0.5380   0.3439   0.1521   0.00    0.0
2022/01/25 00:35:00.000  -2279829.9519   5004705.4003   3219777.3085   6   8   0.5148   0.7498   0.2200   0.5292   0.3387   0.1522   0.00    0.0
2022/01/25 00:35:30.000  -2279829.9427   5004705.3735   3219777.2876   6   8   0.5047   0.7371   0.2152   0.5206   0.3337   0.1522   0.00    0.0
2022/01/25 00:36:00.000  -2279829.9530   5004705.3625   3219777.2759   6   8   0.4950   0.7248   0.2105   0.5122   0.3289   0.1521   0.00    0.0
2022/01/25 00:36:30.000  -2279829.9518   5004705.3501   3219777.2735   6   8   0.4857   0.7128   0.2061   0.5041   0.3241   0.1519   0.00    0.0
2022/01/25 00:37:00.000  -2279829.9697   5004705.3015   3219777.2685   6   8   0.4768   0.7010   0.2019   0.4962   0.3194   0.1516   0.00    0.0
2022/01/25 00:37:30.000  -2279829.9744   5004705.2621   3219777.2552   6   8   0.4681   0.6894   0.1978   0.4885   0.3147   0.1513   0.00    0.0
2022/01/25 00:38:00.000  -2279830.0006   5004705.2506   3219777.2345   6   8   0.4598   0.6780   0.1939   0.4810   0.3100   0.1508   0.00    0.0
2022/01/25 00:39:00.000  -2279829.9847   5004705.2749   3219777.2437   6   8   0.4508   0.6655   0.1900   0.4729   0.3057   0.1517   0.00    0.0
2022/01/25 00:39:30.000  -2279829.9741   5004705.2924   3219777.2437   6   8   0.4427   0.6533   0.1857   0.4655   0.3003   0.1509   0.00    0.0
2022/01/25 00:40:00.000  -2279829.9618   5004705.2836   3219777.2363   6   8   0.4349   0.6413   0.1817   0.4582   0.2950   0.1501   0.00    0.0
2022/01/25 00:40:30.000  -2279829.9505   5004705.2758   3219777.2340   6   7   0.4281   0.6335   0.1778   0.4514   0.2903   0.1495   0.00    0.0
2022/01/25 00:41:00.000  -2279829.9381   5004705.3123   3219777.2392   6   7   0.4214   0.6231   0.1756   0.4449   0.2863   0.1484   0.00    0.0
2022/01/25 00:41:30.000  -2279829.9147   5004705.3391   3219777.2470   6   7   0.4149   0.6128   0.1735   0.4385   0.2824   0.1471   0.00    0.0
2022/01/25 00:42:00.000  -2279829.9053   5004705.3808   3219777.2537   6   7   0.4085   0.6026   0.1715   0.4321   0.2786   0.1457   0.00    0.0
2022/01/25 00:42:30.000  -2279829.8946   5004705.3949   3219777.2531   6   7   0.4023   0.5926   0.1696   0.4257   0.2748   0.1442   0.00    0.0
2022/01/25 00:43:00.000  -2279829.8816   5004705.4279   3219777.2550   6   7   0.3963   0.5827   0.1678   0.4193   0.2711   0.1426   0.00    0.0
2022/01/25 00:43:30.000  -2279829.8640   5004705.4439   3219777.2566   6   7   0.3903   0.5730   0.1661   0.4130   0.2675   0.1410   0.00    0.0
2022/01/25 00:44:00.000  -2279829.8294   5004705.4447   3219777.2502   6   7   0.3846   0.5634   0.1644   0.4067   0.2639   0.1392   0.00    0.0
2022/01/25 00:44:30.000  -2279829.8205   5004705.4344   3219777.2507   6   7   0.3789   0.5540   0.1629   0.4004   0.2603   0.1374   0.00    0.0
2022/01/25 00:45:00.000  -2279829.8014   5004705.4514   3219777.2599   6   7   0.3733   0.5447   0.1613   0.3942   0.2569   0.1355   0.00    0.0
2022/01/25 00:45:30.000  -2279829.8028   5004705.4666   3219777.2575   6   7   0.3679   0.5355   0.1599   0.3880   0.2534   0.1336   0.00    0.0
2022/01/25 00:46:00.000  -2279829.8083   5004705.4793   3219777.2592   6   7   0.3626   0.5265   0.1585   0.3819   0.2500   0.1316   0.00    0.0
2022/01/25 00:46:30.000  -2279829.8074   5004705.4902   3219777.2598   6   7   0.3573   0.5177   0.1571   0.3759   0.2467   0.1295   0.00    0.0
2022/01/25 00:47:00.000  -2279829.8003   5004705.5217   3219777.2704   6   7   0.3522   0.5090   0.1558   0.3699   0.2434   0.1275   0.00    0.0
2022/01/25 00:47:30.000  -2279829.7749   5004705.5637   3219777.2740   6   7   0.3472   0.5004   0.1545   0.3639   0.2401   0.1253   0.00    0.0
2022/01/25 00:48:00.000  -2279829.7622   5004705.5967   3219777.2737   6   7   0.3423   0.4920   0.1532   0.3581   0.2369   0.1232   0.00    0.0
2022/01/25 00:48:30.000  -2279829.7525   5004705.5908   3219777.2634   6   7   0.3375   0.4837   0.1520   0.3522   0.2337   0.1210   0.00    0.0
2022/01/25 00:49:00.000  -2279829.7572   5004705.5968   3219777.2665   6   7   0.3328   0.4756   0.1508   0.3465   0.2306   0.1187   0.00    0.0
2022/01/25 00:49:30.000  -2279829.7611   5004705.6042   3219777.2696   6   7   0.3282   0.4676   0.1497   0.3408   0.2276   0.1165   0.00    0.0
2022/01/25 00:50:00.000  -2279829.7609   5004705.5930   3219777.2684   6   7   0.3236   0.4598   0.1486   0.3352   0.2246   0.1142   0.00    0.0
2022/01/25 00:50:30.000  -2279829.7462   5004705.6077   3219777.2674   6   7   0.3192   0.4521   0.1475   0.3297   0.2216   0.1119   0.00    0.0
2022/01/25 00:51:00.000  -2279829.7301   5004705.6172   3219777.2704   6   7   0.3149   0.4446   0.1465   0.3243   0.2187   0.1096   0.00    0.0
2022/01/25 00:51:30.000  -2279829.7181   5004705.6488   3219777.2842   6   7   0.3106   0.4372   0.1455   0.3189   0.2158   0.1072   0.00    0.0
2022/01/25 00:52:00.000  -2279829.7284   5004705.6741   3219777.2925   6   7   0.3065   0.4300   0.1445   0.3136   0.2130   0.1049   0.00    0.0
2022/01/25 00:52:30.000  -2279829.7201   5004705.6934   3219777.2912   6   7   0.3024   0.4229   0.1435   0.3084   0.2102   0.1025   0.00    0.0
2022/01/25 00:53:00.000  -2279829.7053   5004705.7185   3219777.2978   6   7   0.2984   0.4159   0.1425   0.3033   0.2075   0.1001   0.00    0.0
2022/01/25 00:53:30.000  -2279829.6853   5004705.7453   3219777.3082   6   7   0.2945   0.4091   0.1416   0.2982   0.2048   0.0977   0.00    0.0
2022/01/25 00:54:00.000  -2279829.6672   5004705.7789   3219777.3109   6   7   0.2907   0.4025   0.1407   0.2932   0.2022   0.0952   0.00    0.0
2022/01/25 00:54:30.000  -2279829.6528   5004705.8137   3219777.3212   6   7   0.2870   0.3960   0.1399   0.2883   0.1996   0.0928   0.00    0.0
2022/01/25 00:55:00.000  -2279829.6414   5004705.8248   3219777.3243   6   7   0.2833   0.3896   0.1390   0.2835   0.1971   0.0903   0.00    0.0
2022/01/25 00:55:30.000  -2279829.6270   5004705.8376   3219777.3275   6   7   0.2798   0.3834   0.1382   0.2788   0.1946   0.0878   0.00    0.0
2022/01/25 00:56:00.000  -2279829.6091   5004705.8747   3219777.3341   6   7   0.2763   0.3773   0.1373   0.2741   0.1922   0.0854   0.00    0.0
2022/01/25 00:56:30.000  -2279829.5997   5004705.8886   3219777.3399   6   7   0.2729   0.3713   0.1365   0.2695   0.1898   0.0828   0.00    0.0
2022/01/25 00:57:00.000  -2279829.5967   5004705.8893   3219777.3418   6   7   0.2695   0.3654   0.1358   0.2651   0.1874   0.0803   0.00    0.0
2022/01/25 00:57:30.000  -2279829.5819   5004705.9031   3219777.3384   6   7   0.2663   0.3597   0.1350   0.2606   0.1851   0.0778   0.00    0.0
2022/01/25 00:58:00.000  -2279829.5751   5004705.9048   3219777.3363   6   7   0.2631   0.3541   0.1343   0.2563   0.1829   0.0752   0.00    0.0
2022/01/25 00:58:30.000  -2279829.5654   5004705.9238   3219777.3451   6   7   0.2600   0.3487   0.1335   0.2520   0.1807   0.0726   0.00    0.0
2022/01/25 00:59:00.000  -2279829.5564   5004705.8846   3219777.3277   6   7   0.2570   0.3433   0.1328   0.2478   0.1785   0.0700   0.00    0.0
2022/01/25 00:59:30.000  -2279829.5645   5004705.8919   3219777.3355   6   7   0.2540   0.3381   0.1321   0.2437   0.1764   0.0674   0.00    0.0
2022/01/25 01:00:00.000  -2279829.5719   5004705.9021   3219777.3367   6   7   0.2511   0.3330   0.1314   0.2397   0.1743   0.0647   0.00    0.0
2022/01/25 01:00:30.000  -2279829.5692   5004705.9111   3219777.3403   6   7   0.2483   0.3280   0.1308   0.2357   0.1723   0.0620   0.00    0.0
2022/01/25 01:01:30.000  -2279829.5523   5004705.8878   3219777.3304   6   7   0.2449   0.3224   0.1302   0.2314   0.1703   0.0600   0.00    0.0
2022/01/25 01:02:00.000  -2279829.5575   5004705.8660   3219777.3240   6   7   0.2421   0.3174   0.1295   0.2274   0.1682   0.0570   0.00    0.0
2022/01/25 01:02:30.000  -2279829.5599   5004705.8685   3219777.3239   6   7   0.2394   0.3126   0.1288   0.2235   0.1662   0.0539   0.00    0.0
2022/01/25 01:03:00.000  -2279829.5522   5004705.8749   3219777.3249   6   7   0.2367   0.3078   0.1281   0.2196   0.1643   0.0508   0.00    0.0
2022/01/25 01:03:30.000  -2279829.5538   5004705.8720   3219777.3343   6   7   0.2342   0.3032   0.1275   0.2159   0.1624   0.0476   0.00    0.0
2022/01/25 01:04:00.000  -2279829.5546   5004705.8776   3219777.3337   6   7   0.2316   0.2987   0.1268   0.2122   0.1605   0.0443   0.00    0.0
2022/01/25 01:04:30.000  -2279829.5582   5004705.8692   3219777.3260   6   7   0.2292   0.2944   0.1262   0.2086   0.1587   0.0408   0.00    0.0
2022/01/25 01:05:00.000  -2279829.5495   5004705.8811   3219777.3311   6   7   0.2268   0.2901   0.1256   0.2051   0.1569   0.0372   0.00    0.0
2022/01/25 01:05:30.000  -2279829.5511   5004705.8805   3219777.3299   6   7   0.2245   0.2860   0.1250   0.2016   0.1552   0.0333   0.00    0.0
2022/01/25 01:06:00.000  -2279829.5462   5004705.8625   3219777.3255   6   7   0.2222   0.2819   0.1244   0.1982   0.1535   0.0291   0.00    0.0
2022/01/25 01:06:30.000  -2279829.5379   5004705.8469   3219777.3214   6   7   0.2200   0.2780   0.1238   0.1949   0.1519   0.0243   0.00    0.0
2022/01/25 01:07:00.000  -2279829.5396   5004705.8557   3219777.3265   6   7   0.2178   0.2741   0.1233   0.1917   0.1503   0.0185   0.00    0.0
2022/01/25 01:07:30.000  -2279829.5453   5004705.8673   3219777.3322   6   7   0.2157   0.2704   0.1227   0.1885   0.1487   0.0104   0.00    0.0
2022/01/25 01:08:00.000  -2279829.5530   5004705.8921   3219777.3311   6   7   0.2137   0.2667   0.1222   0.1854   0.1472  -0.0110   0.00    0.0
2022/01/25 01:08:30.000  -2279829.5580   5004705.8865   3219777.3307   6   7   0.2117   0.2632   0.1216   0.1823   0.1457  -0.0184   0.00    0.0
2022/01/25 01:09:00.000  -2279829.5560   5004705.8978   3219777.3329   6   7   0.2097   0.2597   0.1211   0.1793   0.1442  -0.0235   0.00    0.0
2022/01/25 01:09:30.000  -2279829.5540   5004705.8897   3219777.3340   6   7   0.2078   0.2563   0.1205   0.1764   0.1428  -0.0275   0.00    0.0
2022/01/25 01:10:00.000  -2279829.5504   5004705.8849   3219777.3336   6   7   0.2060   0.2530   0.1200   0.1735   0.1414  -0.0308   0.00    0.0
2022/01/25 01:10:30.000  -2279829.5405   5004705.8898   3219777.3325   6   7   0.2041   0.2497   0.1195   0.1707   0.1401  -0.0337   0.00    0.0
2022/01/25 01:11:00.000  -2279829.5351   5004705.8814   3219777.3281   6   7   0.2024   0.2466   0.1190   0.1679   0.1387  -0.0363   0.00    0.0
2022/01/25 01:11:30.000  -2279829.5374   5004705.8918   3219777.3307   6   7   0.2006   0.2435   0.1185   0.1652   0.1374  -0.0386   0.00    0.0
2022/01/25 01:12:00.000  -2279829.5311   5004705.8968   3219777.3281   6   7   0.1990   0.2405   0.1180   0.1625   0.1362  -0.0408   0.00    0.0
2022/01/25 01:12:30.000  -2279829.5315   5004705.8966   3219777.3305   6   7   0.1973   0.2376   0.1175   0.1599   0.1349  -0.0427   0.00    0.0
2022/01/25 01:13:00.000  -2279829.5259   5004705.8980   3219777.3304   6   7   0.1957   0.2347   0.1170   0.1573   0.1337  -0.0445   0.00    0.0
2022/01/25 01:13:30.000  -2279829.5261   5004705.9029   3219777.3283   6   7   0.1941   0.2319   0.1165   0.1548   0.1325  -0.0461   0.00    0.0
2022/01/25 01:14:00.000  -2279829.5337   5004705.9105   3219777.3326   6   7   0.1926   0.2291   0.1160   0.1523   0.1314  -0.0476   0.00    0.0
2022/01/25 01:14:30.000  -2279829.5219   5004705.9119   3219777.3337   6   7   0.1911   0.2265   0.1155   0.1499   0.1302  -0.0490   0.00    0.0
2022/01/25 01:15:00.000  -2279829.5189   5004705.9091   3219777.3317   6   7   0.1896   0.2238   0.1151   0.1475   0.1291  -0.0504   0.00    0.0
2022/01/25 01:15:30.000  -2279829.5164   5004705.9294   3219777.3422   6   7   0.1882   0.2213   0.1146   0.1451   0.1280  -0.0516   0.00    0.0
2022/01/25 01:16:00.000  -2279829.5219   5004705.9394   3219777.3472   6   7   0.1868   0.2188   0.1141   0.1428   0.1270  -0.0528   0.00    0.0
2022/01/25 01:16:30.000  -2279829.5102   5004705.9409   3219777.3478   6   7   0.1854   0.2163   0.1137   0.1405   0.1259  -0.0539   0.00    0.0
2022/01/25 01:17:00.000  -2279829.5060   5004705.9755   3219777.3560   6   7   0.1841   0.2139   0.1132   0.1383   0.1249  -0.0549   0.00    0.0
2022/01/25 01:17:30.000  -2279829.4951   5004705.9629   3219777.3476   6   7   0.1828   0.2116   0.1128   0.1361   0.1239  -0.0558   0.00    0.0
2022/01/25 01:18:00.000  -2279829.4855   5004705.9803   3219777.3537   6   7   0.1815   0.2093   0.1123   0.1339   0.1229  -0.0568   0.00    0.0
2022/01/25 01:18:30.000  -2279829.4792   5004705.9804   3219777.3583   6   7   0.1802   0.2071   0.1119   0.1318   0.1220  -0.0576   0.00    0.0
2022/01/25 01:19:00.000  -2279829.4713   5004705.9768   3219777.3499   6   7   0.1790   0.2049   0.1114   0.1297   0.1210  -0.0584   0.00    0.0
2022/01/25 01:19:30.000  -2279829.4637   5004705.9836   3219777.3505   6   7   0.1778   0.2028   0.1110   0.1277   0.1201  -0.0592   0.00    0.0
2022/01/25 01:20:00.000  -2279829.4659   5004705.9837   3219777.3512   6   7   0.1766   0.2007   0.1106   0.1256   0.1192  -0.0599   0.00    0.0
2022/01/25 01:20:30.000  -2279829.4718   5004705.9870   3219777.3543   6   7   0.1755   0.1986   0.1101   0.1236   0.1183  -0.0606   0.00    0.0
2022/01/25 01:21:00.000  -2279829.4716   5004705.9928   3219777.3494   6   7   0.1743   0.1966   0.1097   0.1217   0.1175  -0.0613   0.00    0.0
2022/01/25 01:21:30.000  -2279829.4716   5004706.0052   3219777.3555   6   7   0.1732   0.1947   0.1093   0.1197   0.1166  -0.0619   0.00    0.0
2022/01/25 01:22:00.000  -2279829.4553   5004706.0018   3219777.3433   6   7   0.1721   0.1927   0.1089   0.1178   0.1158  -0.0624   0.00    0.0
2022/01/25 01:22:30.000  -2279829.4555   5004705.9982   3219777.3455   6   7   0.1711   0.1909   0.1085   0.1159   0.1150  -0.0630   0.00    0.0
2022/01/25 01:23:00.000  -2279829.4502   5004706.0132   3219777.3453   6   7   0.1700   0.1890   0.1080   0.1141   0.1142  -0.0635   0.00    0.0
2022/01/25 01:23:30.000  -2279829.4551   5004706.0267   3219777.3589   6   7   0.1690   0.1872   0.1076   0.1123   0.1134  -0.0640   0.00    0.0
2022/01/25 01:24:00.000  -2279829.4501   5004706.0169   3219777.3564   6   7   0.1680   0.1855   0.1072   0.1105   0.1126  -0.0645   0.00    0.0
2022/01/25 01:24:30.000  -2279829.4460   5004706.0293   3219777.3606   6   7   0.1671   0.1837   0.1068   0.1087   0.1119  -0.0649   0.00    0.0
2022/01/25 01:25:00.000  -2279829.4424   5004706.0416   3219777.3603   6   7   0.1661   0.1821   0.1064   0.1069   0.1111  -0.0654   0.00    0.0
2022/01/25 01:25:30.000  -2279829.4488   5004706.0443   3219777.3678   6   7   0.1652   0.1804   0.1060   0.1052   0.1104  -0.0658   0.00    0.0
2022/01/25 01:26:00.000  -2279829.4357   5004706.0337   3219777.3578   6   7   0.1643   0.1788   0.1056   0.1035   0.1097  -0.0661   0.00    0.0
2022/01/25 01:26:30.000  -2279829.4294   5004706.0363   3219777.3552   6   7   0.1634   0.1772   0.1052   0.1018   0.1090  -0.0665   0.00    0.0
2022/01/25 01:27:00.000  -2279829.4309   5004706.0445   3219777.3591   6   7   0.1625   0.1756   0.1049   0.1002   0.1083  -0.0669   0.00    0.0
2022/01/25 01:27:30.000  -2279829.4244   5004706.0591   3219777.3615   6   7   0.1616   0.1741   0.1045   0.0985   0.1076  -0.0672   0.00    0.0
2022/01/25 01:28:00.000  -2279829.4227   5004706.0403   3219777.3575   6   7   0.1608   0.1726   0.1041   0.0969   0.1070  -0.0675   0.00    0.0
2022/01/25 01:28:30.000  -2279829.4209   5004706.0482   3219777.3560   6   7   0.1600   0.1712   0.1037   0.0953   0.1063  -0.0678   0.00    0.0
2022/01/25 01:29:00.000  -2279829.4116   5004706.0606   3219777.3602   6   7   0.1592   0.1697   0.1034   0.0937   0.1057  -0.0681   0.00    0.0
2022/01/25 01:29:30.000  -2279829.4166   5004706.0691   3219777.3683   6   7   0.1584   0.1683   0.1030   0.0921   0.1051  -0.0683   0.00    0.0
2022/01/25 01:30:00.000  -2279829.4109   5004706.0668   3219777.3658   6   7   0.1576   0.1670   0.1026   0.0906   0.1045  -0.0686   0.00    0.0
2022/01/25 01:30:30.000  -2279829.4027   5004706.0776   3219777.3621   6   7   0.1569   0.1656   0.1023   0.0891   0.1039  -0.0688   0.00    0.0
2022/01/25 01:31:00.000  -2279829.3946   5004706.0838   3219777.3643   6   7   0.1561   0.1643   0.1019   0.0875   0.1033  -0.0691   0.00    0.0
2022/01/25 01:31:30.000  -2279829.3923   5004706.0902   3219777.3589   6   7   0.1554   0.1630   0.1016   0.0860   0.1027  -0.0693   0.00    0.0
2022/01/25 01:32:00.000  -2279829.3848   5004706.0819   3219777.3493   6   7   0.1547   0.1617   0.1012   0.0846   0.1021  -0.0695   0.00    0.0
2022/01/25 01:32:30.000  -2279829.3814   5004706.1083   3219777.3621   6   7   0.1540   0.1605   0.1009   0.0831   0.1016  -0.0697   0.00    0.0
2022/01/25 01:33:00.000  -2279829.3730   5004706.1200   3219777.3668   6   7   0.1533   0.1593   0.1005   0.0816   0.1010  -0.0699   0.00    0.0
2022/01/25 01:33:30.000  -2279829.3763   5004706.1038   3219777.3596   6   7   0.1526   0.1581   0.1002   0.0802   0.1005  -0.0701   0.00    0.0
2022/01/25 01:34:00.000  -2279829.3768   5004706.1158   3219777.3584   6   7   0.1520   0.1569   0.0999   0.0788   0.0999  -0.0703   0.00    0.0
2022/01/25 01:34:30.000  -2279829.3764   5004706.1161   3219777.3535   6   7   0.1514   0.1557   0.0995   0.0773   0.0994  -0.0704   0.00    0.0
2022/01/25 01:35:00.000  -2279829.3694   5004706.1259   3219777.3592   6   7   0.1507   0.1546   0.0992   0.0759   0.0989  -0.0706   0.00    0.0
2022/01/25 01:35:30.000  -2279829.3723   5004706.1479   3219777.3632   6   7   0.1501   0.1535   0.0989   0.0745   0.0984  -0.0707   0.00    0.0
2022/01/25 01:36:00.000  -2279829.3631   5004706.1463   3219777.3570   6   7   0.1495   0.1524   0.0986   0.0732   0.0979  -0.0709   0.00    0.0
2022/01/25 01:36:30.000  -2279829.3657   5004706.1389   3219777.3561   6   7   0.1489   0.1514   0.0982   0.0718   0.0974  -0.0710   0.00    0.0
2022/01/25 01:37:00.000  -2279829.3659   5004706.1492   3219777.3609   6   7   0.1484   0.1503   0.0979   0.0704   0.0969  -0.0711   0.00    0.0
2022/01/25 01:37:30.000  -2279829.3579   5004706.1397   3219777.3531   6   7   0.1478   0.1493   0.0976   0.0690   0.0964  -0.0713   0.00    0.0
2022/01/25 01:38:00.000  -2279829.3771   5004706.1118   3219777.3309   6   7   0.1473   0.1483   0.0973   0.0677   0.0960  -0.0714   0.00    0.0
2022/01/25 01:39:00.000  -2279829.3620   5004706.1106   3219777.3372   6   7   0.1467   0.1471   0.0972   0.0659   0.0957  -0.0717   0.00    0.0
2022/01/25 01:39:30.000  -2279829.3684   5004706.1118   3219777.3390   6   7   0.1462   0.1462   0.0969   0.0645   0.0952  -0.0718   0.00    0.0
2022/01/25 01:40:00.000  -2279829.3597   5004706.1081   3219777.3330   6   7   0.1456   0.1452   0.0966   0.0632   0.0947  -0.0719   0.00    0.0
2022/01/25 01:40:30.000  -2279829.3478   5004706.1017   3219777.3260   6   7   0.1451   0.1442   0.0963   0.0618   0.0942  -0.0720   0.00    0.0
2022/01/25 01:41:00.000  -2279829.3544   5004706.1053   3219777.3283   6   7   0.1446   0.1433   0.0959   0.0605   0.0938  -0.0720   0.00    0.0
2022/01/25 01:41:30.000  -2279829.3526   5004706.1057   3219777.3188   6   7   0.1441   0.1424   0.0956   0.0591   0.0933  -0.0721   0.00    0.0
2022/01/25 01:42:00.000  -2279829.3547   5004706.1097   3219777.3186   6   7   0.1436   0.1415   0.0953   0.0578   0.0929  -0.0722   0.00    0.0
2022/01/25 01:42:30.000  -2279829.3523   5004706.1072   3219777.3162   6   7   0.1432   0.1406   0.0950   0.0564   0.0925  -0.0723   0.00    0.0
2022/01/25 01:43:00.000  -2279829.3530   5004706.1172   3219777.3231   6   7   0.1427   0.1397   0.0947   0.0551   0.0920  -0.0723   0.00    0.0
2022/01/25 01:43:30.000  -2279829.3537   5004706.1307   3219777.3277   6   7   0.1423   0.1389   0.0944   0.0537   0.0916  -0.0724   0.00    0.0
2022/01/25 01:44:00.000  -2279829.3473   5004706.1397   3219777.3343   6   7   0.1418   0.1381   0.0941   0.0524   0.0912  -0.0724   0.00    0.0
2022/01/25 01:44:30.000  -2279829.3353   5004706.1417   3219777.3335   6   7   0.1414   0.1372   0.0938   0.0511   0.0908  -0.0725   0.00    0.0
2022/01/25 01:45:00.000  -2279829.3214   5004706.1353   3219777.3244   6   7   0.1410   0.1365   0.0935   0.0497   0.0904  -0.0725   0.00    0.0
2022/01/25 01:45:30.000  -2279829.3168   5004706.1311   3219777.3243   6   7   0.1406   0.1357   0.0933   0.0484   0.0900  -0.0726   0.00    0.0
2022/01/25 01:46:00.000  -2279829.3169   5004706.1442   3219777.3253   6   7   0.1402   0.1349   0.0930   0.0470   0.0896  -0.0726   0.00    0.0
2022/01/25 01:46:30.000  -2279829.3090   5004706.1443   3219777.3179   6   7   0.1398   0.1342   0.0927   0.0457   0.0893  -0.0727   0.00    0.0
2022/01/25 01:47:00.000  -2279829.2970   5004706.1296   3219777.3064   6   7   0.1395   0.1334   0.0925   0.0443   0.0889  -0.0727   0.00    0.0
2022/01/25 01:47:30.000  -2279829.2962   5004706.1402   3219777.3010   6   7   0.1391   0.1327   0.0922   0.0429   0.0885  -0.0728   0.00    0.0
2022/01/25 01:48:00.000  -2279829.3029   5004706.1429   3219777.2968   6   7   0.1388   0.1320   0.0919   0.0415   0.0882  -0.0728   0.00    0.0
2022/01/25 01:48:30.000  -2279829.2892   5004706.1328   3219777.2858   6   7   0.1384   0.1313   0.0917   0.0401   0.0878  -0.0728   0.00    0.0
2022/01/25 01:49:00.000  -2279829.2804   5004706.1387   3219777.2790   6   7   0.1381   0.1306   0.0914   0.0387   0.0875  -0.0729   0.00    0.0
2022/01/25 01:49:30.000  -2279829.2681   5004706.1358   3219777.2809   6   7   0.1378   0.1300   0.0912   0.0372   0.0871  -0.0729   0.00    0.0
2022/01/25 01:50:00.000  -2279829.2622   5004706.1293   3219777.2735   6   7   0.1374   0.1293   0.0909   0.0357   0.0868  -0.0730   0.00    0.0
2022/01/25 01:50:30.000  -2279829.2802   5004706.1374   3219777.2808   6   7   0.1371   0.1287   0.0907   0.0342   0.0865  -0.0730   0.00    0.0
2022/01/25 01:51:00.000  -2279829.2718   5004706.1437   3219777.2822   6   7   0.1368   0.1280   0.0904   0.0327   0.0861  -0.0730   0.00    0.0
2022/01/25 01:51:30.000  -2279829.2659   5004706.1499   3219777.2870   6   7   0.1365   0.1274   0.0902   0.0311   0.0858  -0.0730   0.00    0.0
2022/01/25 01:52:00.000  -2279829.2681   5004706.1599   3219777.2887   6   7   0.1362   0.1268   0.0899   0.0294   0.0855  -0.0730   0.00    0.0
2022/01/25 01:52:30.000  -2279829.2541   5004706.1354   3219777.2773   6   7   0.1360   0.1262   0.0897   0.0278   0.0852  -0.0731   0.00    0.0
2022/01/25 01:53:00.000  -2279829.2462   5004706.1365   3219777.2706   6   7   0.1357   0.1256   0.0895   0.0260   0.0849  -0.0731   0.00    0.0
2022/01/25 01:53:30.000  -2279829.2500   5004706.1502   3219777.2745   6   7   0.1354   0.1251   0.0893   0.0241   0.0846  -0.0731   0.00    0.0
2022/01/25 01:54:00.000  -2279829.2420   5004706.1409   3219777.2701   6   7   0.1352   0.1245   0.0890   0.0221   0.0843  -0.0731   0.00    0.0
2022/01/25 01:54:30.000  -2279829.2368   5004706.1291   3219777.2566   6   7   0.1349   0.1240   0.0888   0.0200   0.0840  -0.0731   0.00    0.0
2022/01/25 01:55:00.000  -2279829.2413   5004706.1357   3219777.2611   6   6   0.1347   0.1299   0.0970   0.0166   0.0928  -0.0734   0.00    0.0
2022/01/25 01:55:30.000  -2279829.2434   5004706.1368   3219777.2579   6   6   0.1344   0.1297   0.0969   0.0140   0.0927  -0.0734   0.00    0.0
2022/01/25 01:56:00.000  -2279829.2273   5004706.1256   3219777.2600   6   6   0.1342   0.1295   0.0968   0.0106   0.0926  -0.0734   0.00    0.0
2022/01/25 01:56:30.000  -2279829.2383   5004706.1281   3219777.2664   6   6   0.1340   0.1292   0.0967   0.0056   0.0926  -0.0734   0.00    0.0
2022/01/25 01:57:00.000  -2279829.2400   5004706.1249   3219777.2591   6   6   0.1338   0.1290   0.0966  -0.0071   0.0925  -0.0734   0.00    0.0
2022/01/25 01:57:30.000  -2279829.2411   5004706.1271   3219777.2553   6   6   0.1335   0.1288   0.0965  -0.0115   0.0925  -0.0734   0.00    0.0
2022/01/25 01:58:00.000  -2279829.2314   5004706.1502   3219777.2671   6   6   0.1333   0.1286   0.0964  -0.0147   0.0924  -0.0735   0.00    0.0
2022/01/25 01:58:30.000  -2279829.2246   5004706.1551   3219777.2668   6   6   0.1331   0.1284   0.0963  -0.0174   0.0924  -0.0735   0.00    0.0
2022/01/25 01:59:00.000  -2279829.2169   5004706.1500   3219777.2511   6   6   0.1329   0.1282   0.0962  -0.0196   0.0923  -0.0735   0.00    0.0
2022/01/25 01:59:30.000  -2279829.2180   5004706.1644   3219777.2631   6   6   0.1327   0.1280   0.0961  -0.0217   0.0923  -0.0736   0.00    0.0
2022/01/25 02:00:00.000  -2279829.2139   5004706.1496   3219777.2595   6   7   0.1325   0.1278   0.0960  -0.0236   0.0922  -0.0736   0.00    0.0
2022/01/25 02:00:30.000  -2279829.2170   5004706.1582   3219777.2605   6   7   0.1288   0.1255   0.0903   0.0078   0.0881  -0.0666   0.00    0.0
2022/01/25 02:01:30.000  -2279829.2104   5004706.1497   3219777.2607   6   8   0.1272   0.1246   0.0882   0.0129   0.0866  -0.0642   0.00    0.0
2022/01/25 02:02:00.000  -2279829.2132   5004706.1568   3219777.2625   6   8   0.1261   0.1223   0.0831   0.0108   0.0826  -0.0636   0.00    0.0
2022/01/25 02:02:30.000  -2279829.2132   5004706.1509   3219777.2610   6   8   0.1253   0.1214   0.0810   0.0095   0.0811  -0.0629   0.00    0.0
2022/01/25 02:03:00.000  -2279829.2102   5004706.1584   3219777.2631   6   8   0.1247   0.1208   0.0796   0.0075   0.0802  -0.0622   0.00    0.0
2022/01/25 02:03:30.000  -2279829.2098   5004706.1656   3219777.2648   6   8   0.1241   0.1204   0.0787   0.0041   0.0796  -0.0617   0.00    0.0
2022/01/25 02:04:00.000  -2279829.2105   5004706.1725   3219777.2622   6   7   0.1247   0.1242   0.0863  -0.0241   0.0863  -0.0663   0.00    0.0
2022/01/25 02:04:30.000  -2279829.2051   5004706.1695   3219777.2523   6   7   0.1242   0.1239   0.0857  -0.0249   0.0859  -0.0658   0.00    0.0
2022/01/25 02:05:00.000  -2279829.2055   5004706.1557   3219777.2493   6   7   0.1237   0.1237   0.0852  -0.0258   0.0857  -0.0653   0.00    0.0
2022/01/25 02:05:30.000  -2279829.2045   5004706.1523   3219777.2466   6   7   0.1232   0.1235   0.0846  -0.0266   0.0854  -0.0649   0.00    0.0
2022/01/25 02:06:00.000  -2279829.2030   5004706.1597   3219777.2443   6   7   0.1227   0.1233   0.0841  -0.0275   0.0852  -0.0644   0.00    0.0
2022/01/25 02:06:30.000  -2279829.1943   5004706.1400   3219777.2390   6   7   0.1222   0.1231   0.0837  -0.0284   0.0850  -0.0640   0.00    0.0
2022/01/25 02:07:00.000  -2279829.1997   5004706.1507   3219777.2437   6   7   0.1217   0.1229   0.0832  -0.0292   0.0848  -0.0636   0.00    0.0
2022/01/25 02:07:30.000  -2279829.1976   5004706.1406   3219777.2436   6   7   0.1212   0.1228   0.0828  -0.0301   0.0846  -0.0632   0.00    0.0
2022/01/25 02:08:00.000  -2279829.1987   5004706.1427   3219777.2483   6   7   0.1208   0.1227   0.0824  -0.0309   0.0844  -0.0628   0.00    0.0
2022/01/25 02:08:30.000  -2279829.1983   5004706.1583   3219777.2492   6   7   0.1203   0.1225   0.0820  -0.0318   0.0843  -0.0625   0.00    0.0
2022/01/25 02:09:00.000  -2279829.1914   5004706.1579   3219777.2445   6   7   0.1199   0.1224   0.0816  -0.0326   0.0842  -0.0621   0.00    0.0
2022/01/25 02:09:30.000  -2279829.1945   5004706.1680   3219777.2443   6   7   0.1194   0.1223   0.0813  -0.0335   0.0840  -0.0618   0.00    0.0
2022/01/25 02:10:00.000  -2279829.1877   5004706.1609   3219777.2494   6   7   0.1190   0.1222   0.0810  -0.0343   0.0839  -0.0615   0.00    0.0
2022/01/25 02:10:30.000  -2279829.1896   5004706.1676   3219777.2544   6   7   0.1186   0.1221   0.0807  -0.0351   0.0838  -0.0612   0.00    0.0
2022/01/25 02:11:00.000  -2279829.1749   5004706.1580   3219777.2419   6   7   0.1182   0.1220   0.0804  -0.0360   0.0837  -0.0609   0.00    0.0
2022/01/25 02:11:30.000  -2279829.1789   5004706.1670   3219777.2448   6   7   0.1178   0.1219   0.0801  -0.0368   0.0837  -0.0607   0.00    0.0
2022/01/25 02:12:00.000  -2279829.1852   5004706.1678   3219777.2467   6   7   0.1174   0.1218   0.0798  -0.0376   0.0836  -0.0604   0.00    0.0
2022/01/25 02:12:30.000  -2279829.1783   5004706.1556   3219777.2432   6   7   0.1170   0.1218   0.0795  -0.0385   0.0835  -0.0602   0.00    0.0
2022/01/25 02:13:00.000  -2279829.1712   5004706.1569   3219777.2384   6   7   0.1166   0.1217   0.0793  -0.0393   0.0835  -0.0600   0.00    0.0
2022/01/25 02:13:30.000  -2279829.1693   5004706.1557   3219777.2382   6   7   0.1163   0.1217   0.0791  -0.0401   0.0834  -0.0598   0.00    0.0
2022/01/25 02:14:00.000  -2279829.1637   5004706.1441   3219777.2348   6   7   0.1159   0.1217   0.0788  -0.0409   0.0834  -0.0596   0.00    0.0
2022/01/25 02:14:30.000  -2279829.1771   5004706.1558   3219777.2423   6   7   0.1156   0.1216   0.0786  -0.0417   0.0834  -0.0594   0.00    0.0
2022/01/25 02:15:00.000  -2279829.1704   5004706.1459   3219777.2359   6   7   0.1152   0.1216   0.0784  -0.0425   0.0833  -0.0593   0.00    0.0
2022/01/25 02:15:30.000  -2279829.1709   5004706.1562   3219777.2416   6   7   0.1149   0.1216   0.0782  -0.0433   0.0833  -0.0591   0.00    0.0
2022/01/25 02:16:00.000  -2279829.1765   5004706.1654   3219777.2461   6   7   0.1146   0.1215   0.0780  -0.0441   0.0833  -0.0590   0.00    0.0
2022/01/25 02:16:30.000  -2279829.1768   5004706.1589   3219777.2377   6   7   0.1143   0.1215   0.0778  -0.0449   0.0833  -0.0589   0.00    0.0
2022/01/25 02:17:00.000  -2279829.1764   5004706.1664   3219777.2425   6   7   0.1140   0.1215   0.0777  -0.0457   0.0833  -0.0588   0.00    0.0
2022/01/25 02:17:30.000  -2279829.1626   5004706.1626   3219777.2424   6   7   0.1137   0.1215   0.0775  -0.0464   0.0833  -0.0587   0.00    0.0
2022/01/25 02:18:00.000  -2279829.1620   5004706.1595   3219777.2419   6   7   0.1134   0.1215   0.0773  -0.0472   0.0833  -0.0586   0.00    0.0
2022/01/25 02:18:30.000  -2279829.1597   5004706.1524   3219777.2410   6   7   0.1131   0.1215   0.0772  -0.0480   0.0833  -0.0585   0.00    0.0
2022/01/25 02:19:00.000  -2279829.1547   5004706.1458   3219777.2355   6   7   0.1128   0.1215   0.0770  -0.0487   0.0833  -0.0585   0.00    0.0
2022/01/25 02:19:30.000  -2279829.1601   5004706.1540   3219777.2379   6   7   0.1126   0.1216   0.0769  -0.0495   0.0833  -0.0584   0.00    0.0
2022/01/25 02:20:00.000  -2279829.1655   5004706.1687   3219777.2379   6   7   0.1123   0.1216   0.0768  -0.0502   0.0833  -0.0584   0.00    0.0
2022/01/25 02:20:30.000  -2279829.1513   5004706.1475   3219777.2253   6   7   0.1121   0.1216   0.0767  -0.0510   0.0833  -0.0584   0.00    0.0
2022/01/25 02:21:00.000  -2279829.1478   5004706.1405   3219777.2214   6   7   0.1118   0.1217   0.0765  -0.0517   0.0834  -0.0584   0.00    0.0
2022/01/25 02:21:30.000  -2279829.1555   5004706.1656   3219777.2330   6   7   0.1116   0.1217   0.0764  -0.0524   0.0834  -0.0583   0.00    0.0
2022/01/25 02:22:00.000  -2279829.1610   5004706.1602   3219777.2305   6   7   0.1114   0.1217   0.0763  -0.0531   0.0834  -0.0584   0.00    0.0
2022/01/25 02:22:30.000  -2279829.1562   5004706.1629   3219777.2248   6   7   0.1112   0.1218   0.0762  -0.0538   0.0834  -0.0584   0.00    0.0
2022/01/25 02:23:00.000  -2279829.1546   5004706.1706   3219777.2311   6   7   0.1110   0.1219   0.0761  -0.0546   0.0835  -0.0584   0.00    0.0
2022/01/25 02:23:30.000  -2279829.1619   5004706.1615   3219777.2234   6   7   0.1108   0.1219   0.0760  -0.0553   0.0835  -0.0584   0.00    0.0
2022/01/25 02:24:00.000  -2279829.1648   5004706.1624   3219777.2276   6   7   0.1106   0.1220   0.0759  -0.0560   0.0836  -0.0585   0.00    0.0
2022/01/25 02:24:30.000  -2279829.1491   5004706.1646   3219777.2259   6   7   0.1105   0.1220   0.0759  -0.0567   0.0836  -0.0585   0.00    0.0
2022/01/25 02:25:00.000  -2279829.1498   5004706.1761   3219777.2342   6   7   0.1103   0.1221   0.0758  -0.0574   0.0836  -0.0586   0.00    0.0
2022/01/25 02:25:30.000  -2279829.1433   5004706.1543   3219777.2244   6   7   0.1102   0.1222   0.0757  -0.0580   0.0837  -0.0586   0.00    0.0
2022/01/25 02:26:00.000  -2279829.1480   5004706.1671   3219777.2295   6   7   0.1100   0.1223   0.0756  -0.0587   0.0837  -0.0587   0.00    0.0
2022/01/25 02:26:30.000  -2279829.1515   5004706.1664   3219777.2306   6   7   0.1099   0.1224   0.0756  -0.0594   0.0838  -0.0588   0.00    0.0
2022/01/25 02:27:00.000  -2279829.1439   5004706.1611   3219777.2304   6   7   0.1098   0.1225   0.0755  -0.0601   0.0839  -0.0589   0.00    0.0
2022/01/25 02:27:30.000  -2279829.1392   5004706.1696   3219777.2330   6   7   0.1096   0.1226   0.0754  -0.0607   0.0839  -0.0590   0.00    0.0
2022/01/25 02:28:00.000  -2279829.1426   5004706.1734   3219777.2362   6   7   0.1095   0.1226   0.0754  -0.0614   0.0840  -0.0591   0.00    0.0
2022/01/25 02:28:30.000  -2279829.1366   5004706.1727   3219777.2299   6   7   0.1094   0.1228   0.0753  -0.0621   0.0840  -0.0592   0.00    0.0
2022/01/25 02:29:00.000  -2279829.1407   5004706.1861   3219777.2334   6   7   0.1093   0.1229   0.0753  -0.0627   0.0841  -0.0593   0.00    0.0
2022/01/25 02:29:30.000  -2279829.1389   5004706.1865   3219777.2376   6   7   0.1093   0.1230   0.0752  -0.0634   0.0842  -0.0594   0.00    0.0
2022/01/25 02:30:00.000  -2279829.1217   5004706.1763   3219777.2348   6   7   0.1092   0.1231   0.0752  -0.0640   0.0842  -0.0595   0.00    0.0
2022/01/25 02:30:30.000  -2279829.1305   5004706.1846   3219777.2362   6   7   0.1091   0.1232   0.0751  -0.0646   0.0843  -0.0597   0.00    0.0
2022/01/25 02:31:00.000  -2279829.1313   5004706.1931   3219777.2433   6   7   0.1091   0.1233   0.0751  -0.0653   0.0844  -0.0598   0.00    0.0
2022/01/25 02:31:30.000  -2279829.1186   5004706.1795   3219777.2350   6   7   0.1090   0.1235   0.0751  -0.0659   0.0844  -0.0599   0.00    0.0
2022/01/25 02:32:00.000  -2279829.1141   5004706.1720   3219777.2308   6   7   0.1090   0.1236   0.0750  -0.0665   0.0845  -0.0601   0.00    0.0
2022/01/25 02:32:30.000  -2279829.1201   5004706.1821   3219777.2407   6   7   0.1089   0.1238   0.0750  -0.0672   0.0846  -0.0602   0.00    0.0
2022/01/25 02:33:00.000  -2279829.1184   5004706.1911   3219777.2374   6   7   0.1089   0.1239   0.0749  -0.0678   0.0847  -0.0604   0.00    0.0
2022/01/25 02:33:30.000  -2279829.1221   5004706.1937   3219777.2401   6   7   0.1089   0.1240   0.0749  -0.0684   0.0848  -0.0606   0.00    0.0
2022/01/25 02:34:00.000  -2279829.1233   5004706.2023   3219777.2470   6   7   0.1089   0.1242   0.0749  -0.0690   0.0848  -0.0607   0.00    0.0
2022/01/25 02:34:30.000  -2279829.1230   5004706.2111   3219777.2506   6   7   0.1089   0.1243   0.0749  -0.0696   0.0849  -0.0609   0.00    0.0
2022/01/25 02:35:00.000  -2279829.1227   5004706.1997   3219777.2512   6   7   0.1089   0.1245   0.0748  -0.0702   0.0850  -0.0610   0.00    0.0
2022/01/25 02:35:30.000  -2279829.1249   5004706.2002   3219777.2527   6   7   0.1089   0.1247   0.0748  -0.0708   0.0851  -0.0612   0.00    0.0
2022/01/25 02:36:00.000  -2279829.1213   5004706.1954   3219777.2425   6   7   0.1089   0.1248   0.0748  -0.0714   0.0852  -0.0614   0.00    0.0
2022/01/25 02:36:30.000  -2279829.1211   5004706.1995   3219777.2498   6   7   0.1089   0.1250   0.0748  -0.0720   0.0853  -0.0616   0.00    0.0
2022/01/25 02:37:00.000  -2279829.1079   5004706.1904   3219777.2499   6   7   0.1089   0.1252   0.0748  -0.0726   0.0854  -0.0617   0.00    0.0
2022/01/25 02:37:30.000  -2279829.1184   5004706.2088   3219777.2549   6   7   0.1090   0.1254   0.0748  -0.0731   0.0855  -0.0619   0.00    0.0
2022/01/25 02:38:00.000  -2279829.1149   5004706.2038   3219777.2519   6   7   0.1090   0.1255   0.0748  -0.0737   0.0856  -0.0621   0.00    0.0
2022/01/25 02:38:30.000  -2279829.1086   5004706.1918   3219777.2507   6   7   0.1091   0.1257   0.0747  -0.0743   0.0856  -0.0623   0.00    0.0
2022/01/25 02:39:00.000  -2279829.0930   5004706.1899   3219777.2468   6   7   0.1091   0.1259   0.0747  -0.0749   0.0857  -0.0625   0.00    0.0
2022/01/25 02:40:00.000  -2279829.1103   5004706.2123   3219777.2545   6   7   0.1094   0.1264   0.0748  -0.0759   0.0860  -0.0628   0.00    0.0
2022/01/25 02:40:30.000  -2279829.1059   5004706.2169   3219777.2602   6   7   0.1095   0.1266   0.0748  -0.0765   0.0861  -0.0630   0.00    0.0
2022/01/25 02:41:00.000  -2279829.0913   5004706.1992   3219777.2502   6   7   0.1096   0.1268   0.0748  -0.0770   0.0862  -0.0632   0.00    0.0
2022/01/25 02:41:30.000  -2279829.0927   5004706.2105   3219777.2526   6   7   0.1096   0.1270   0.0748  -0.0776   0.0863  -0.0634   0.00    0.0
2022/01/25 02:42:00.000  -2279829.0956   5004706.2155   3219777.2564   6   7   0.1097   0.1272   0.0748  -0.0781   0.0864  -0.0636   0.00    0.0
2022/01/25 02:42:30.000  -2279829.0934   5004706.2279   3219777.2642   6   7   0.1098   0.1274   0.0748  -0.0787   0.0865  -0.0638   0.00    0.0
2022/01/25 02:43:00.000  -2279829.0885   5004706.2222   3219777.2644   6   7   0.1099   0.1276   0.0748  -0.0792   0.0867  -0.0640   0.00    0.0
2022/01/25 02:43:30.000  -2279829.0974   5004706.2379   3219777.2660   6   7   0.1100   0.1278   0.0748  -0.0798   0.0868  -0.0642   0.00    0.0
2022/01/25 02:44:00.000  -2279829.0944   5004706.2347   3219777.2638   6   7   0.1101   0.1280   0.0748  -0.0803   0.0869  -0.0644   0.00    0.0
2022/01/25 02:44:30.000  -2279829.0876   5004706.2245   3219777.2602   6   7   0.1102   0.1282   0.0748  -0.0808   0.0870  -0.0646   0.00    0.0
2022/01/25 02:45:00.000  -2279829.0947   5004706.2307   3219777.2640   6   7   0.1103   0.1284   0.0748  -0.0813   0.0871  -0.0648   0.00    0.0
2022/01/25 02:45:30.000  -2279829.0945   5004706.2352   3219777.2752   6   7   0.1105   0.1286   0.0748  -0.0819   0.0872  -0.0650   0.00    0.0
2022/01/25 02:46:00.000  -2279829.0821   5004706.2261   3219777.2710   6   7   0.1106   0.1288   0.0748  -0.0824   0.0873  -0.0652   0.00    0.0
2022/01/25 02:46:30.000  -2279829.0967   5004706.2351   3219777.2755   6   7   0.1107   0.1290   0.0748  -0.0829   0.0874  -0.0654   0.00    0.0
2022/01/25 02:47:00.000  -2279829.0888   5004706.2444   3219777.2730   6   7   0.1108   0.1293   0.0748  -0.0834   0.0875  -0.0656   0.00    0.0
2022/01/25 02:47:30.000  -2279829.0871   5004706.2342   3219777.2716   6   7   0.1110   0.1295   0.0748  -0.0839   0.0876  -0.0658   0.00    0.0
2022/01/25 02:48:00.000  -2279829.0738   5004706.2184   3219777.2675   6   7   0.1111   0.1297   0.0748  -0.0844   0.0877  -0.0660   0.00    0.0
2022/01/25 02:48:30.000  -2279829.0734   5004706.2131   3219777.2711   6   7   0.1113   0.1299   0.0748  -0.0849   0.0879  -0.0662   0.00    0.0
2022/01/25 02:49:00.000  -2279829.0686   5004706.2209   3219777.2682   6   7   0.1114   0.1302   0.0749  -0.0854   0.0880  -0.0664   0.00    0.0
2022/01/25 02:49:30.000  -2279829.0624   5004706.2253   3219777.2732   6   7   0.1116   0.1304   0.0749  -0.0859   0.0881  -0.0666   0.00    0.0
2022/01/25 02:50:00.000  -2279829.0548   5004706.2200   3219777.2689   6   7   0.1117   0.1306   0.0749  -0.0864   0.0882  -0.0668   0.00    0.0
2022/01/25 02:50:30.000  -2279829.0813   5004706.2500   3219777.2824   6   7   0.1119   0.1308   0.0749  -0.0869   0.0883  -0.0670   0.00    0.0
2022/01/25 02:51:00.000  -2279829.0799   5004706.2520   3219777.2786   6   7   0.1120   0.1311   0.0749  -0.0873   0.0884  -0.0672   0.00    0.0
2022/01/25 02:51:30.000  -2279829.0695   5004706.2428   3219777.2740   6   7   0.1122   0.1313   0.0749  -0.0878   0.0886  -0.0674   0.00    0.0
2022/01/25 02:52:00.000  -2279829.0560   5004706.2399   3219777.2698   6   7   0.1124   0.1315   0.0749  -0.0883   0.0887  -0.0675   0.00    0.0
2022/01/25 02:52:30.000  -2279829.0646   5004706.2466   3219777.2776   6   7   0.1125   0.1317   0.0750  -0.0887   0.0888  -0.0677   0.00    0.0
2022/01/25 02:53:00.000  -2279829.0737   5004706.2562   3219777.2861   6   7   0.1127   0.1319   0.0750  -0.0892   0.0889  -0.0679   0.00    0.0
2022/01/25 02:53:30.000  -2279829.0708   5004706.2563   3219777.2929   6   7   0.1129   0.1322   0.0750  -0.0896   0.0890  -0.0681   0.00    0.0
2022/01/25 02:54:00.000  -2279829.0597   5004706.2439   3219777.2855   6   7   0.1131   0.1324   0.0750  -0.0901   0.0891  -0.0683   0.00    0.0
2022/01/25 02:54:30.000  -2279829.0648   5004706.2448   3219777.2814   6   7   0.1132   0.1326   0.0750  -0.0905   0.0892  -0.0685   0.00    0.0
2022/01/25 02:55:00.000  -2279829.0718   5004706.2519   3219777.2860   6   8   0.1134   0.1328   0.0751  -0.0909   0.0893  -0.0687   0.00    0.0
2022/01/25 02:55:30.000  -2279829.0632   5004706.2416   3219777.2802   6   8   0.1060   0.1231   0.0726  -0.0793   0.0839  -0.0630   0.00    0.0
2022/01/25 02:56:00.000  -2279829.0664   5004706.2557   3219777.2861   6   8   0.1034   0.1196   0.0718  -0.0751   0.0820  -0.0609   0.00    0.0
2022/01/25 02:56:30.000  -2279829.0777   5004706.2684   3219777.2902   6   8   0.1020   0.1178   0.0713  -0.0729   0.0810  -0.0599   0.00    0.0
2022/01/25 02:57:00.000  -2279829.0768   5004706.2857   3219777.3050   6   8   0.1011   0.1167   0.0710  -0.0716   0.0803  -0.0592   0.00    0.0
2022/01/25 02:57:30.000  -2279829.0717   5004706.2830   3219777.2995   6   8   0.1005   0.1159   0.0707  -0.0707   0.0799  -0.0588   0.00    0.0
2022/01/25 02:58:00.000  -2279829.0663   5004706.2912   3219777.3004   6   7   0.1013   0.1565   0.0759  -0.0811   0.0964  -0.0621   0.00    0.0
2022/01/25 02:58:30.000  -2279829.0761   5004706.2955   3219777.3051   6   8   0.0997   0.1149   0.0704  -0.0698   0.0793  -0.0582   0.00    0.0
2022/01/25 02:59:00.000  -2279829.0935   5004706.2908   3219777.2837   6   8   0.0994   0.1145   0.0703  -0.0694   0.0790  -0.0580   0.00    0.0
2022/01/25 02:59:30.000  -2279829.0996   5004706.2970   3219777.2923   6   8   0.0991   0.1141   0.0702  -0.0691   0.0788  -0.0578   0.00    0.0
2022/01/25 03:00:00.000  -2279829.1034   5004706.2984   3219777.2920   6   8   0.0989   0.1138   0.0700  -0.0688   0.0786  -0.0576   0.00    0.0
2022/01/25 03:00:30.000  -2279829.1014   5004706.3016   3219777.2998   6   8   0.0987   0.1135   0.0699  -0.0686   0.0784  -0.0575   0.00    0.0
2022/01/25 03:01:30.000  -2279829.0969   5004706.2783   3219777.2960   6   8   0.0984   0.1133   0.0698  -0.0684   0.0783  -0.0573   0.00    0.0
2022/01/25 03:02:00.000  -2279829.0989   5004706.2773   3219777.2953   6   8   0.0983   0.1130   0.0697  -0.0683   0.0781  -0.0572   0.00    0.0
2022/01/25 03:02:30.000  -2279829.1014   5004706.2734   3219777.2903   6   8   0.0981   0.1128   0.0696  -0.0681   0.0780  -0.0571   0.00    0.0
2022/01/25 03:03:00.000  -2279829.1000   5004706.2833   3219777.2935   6   8   0.0979   0.1126   0.0695  -0.0680   0.0778  -0.0569   0.00    0.0
2022/01/25 03:03:30.000  -2279829.0995   5004706.2896   3219777.3000   6   8   0.0978   0.1124   0.0694  -0.0679   0.0777  -0.0568   0.00    0.0
2022/01/25 03:04:00.000  -2279829.1006   5004706.2914   3219777.3007   6   8   0.0977   0.1122   0.0693  -0.0678   0.0775  -0.0567   0.00    0.0
2022/01/25 03:04:30.000  -2279829.1132   5004706.3299   3219777.3095   6   7   0.0980   0.1422   0.0731  -0.0735   0.0896  -0.0585   0.00    0.0
2022/01/25 03:05:00.000  -2279829.1108   5004706.3373   3219777.3079   6   7   0.0978   0.1415   0.0729  -0.0731   0.0893  -0.0583   0.00    0.0
2022/01/25 03:05:30.000  -2279829.1083   5004706.3197   3219777.3045   6   7   0.0976   0.1408   0.0728  -0.0728   0.0890  -0.0582   0.00    0.0
2022/01/25 03:06:00.000  -2279829.1071   5004706.3064   3219777.3006   6   7   0.0975   0.1401   0.0726  -0.0726   0.0886  -0.0580   0.00    0.0
2022/01/25 03:06:30.000  -2279829.1032   5004706.3133   3219777.3056   6   7   0.0974   0.1395   0.0725  -0.0723   0.0883  -0.0579   0.00    0.0
2022/01/25 03:07:00.000  -2279829.1072   5004706.3319   3219777.3108   6   7   0.0972   0.1388   0.0724  -0.0720   0.0880  -0.0577   0.00    0.0
2022/01/25 03:07:30.000  -2279829.1055   5004706.3342   3219777.3139   6   7   0.0971   0.1382   0.0722  -0.0718   0.0877  -0.0576   0.00    0.0
2022/01/25 03:08:00.000  -2279829.1087   5004706.3319   3219777.3100   6   7   0.0970   0.1376   0.0721  -0.0715   0.0874  -0.0574   0.00    0.0
2022/01/25 03:08:30.000  -2279829.1210   5004706.3283   3219777.3174   6   7   0.0969   0.1370   0.0720  -0.0713   0.0872  -0.0573   0.00    0.0
2022/01/25 03:09:00.000  -2279829.1244   5004706.3233   3219777.3152   6   7   0.0968   0.1364   0.0719  -0.0711   0.0869  -0.0572   0.00    0.0
2022/01/25 03:09:30.000  -2279829.1206   5004706.3398   3219777.3166   6   7   0.0966   0.1358   0.0718  -0.0709   0.0866  -0.0570   0.00    0.0
2022/01/25 03:10:00.000  -2279829.1128   5004706.3539   3219777.3256   6   7   0.0965   0.1352   0.0716  -0.0707   0.0864  -0.0569   0.00    0.0
2022/01/25 03:10:30.000  -2279829.1206   5004706.3513   3219777.3337   6   7   0.0964   0.1347   0.0716  -0.0705   0.0861  -0.0568   0.00    0.0
2022/01/25 03:11:00.000  -2279829.1213   5004706.3543   3219777.3305   6   7   0.0964   0.1341   0.0715  -0.0703   0.0859  -0.0567   0.00    0.0
2022/01/25 03:11:30.000  -2279829.1286   5004706.3728   3219777.3390   6   7   0.0963   0.1336   0.0714  -0.0701   0.0856  -0.0566   0.00    0.0
2022/01/25 03:12:00.000  -2279829.1323   5004706.3800   3219777.3457   6   7   0.0962   0.1331   0.0713  -0.0699   0.0854  -0.0565   0.00    0.0
2022/01/25 03:12:30.000  -2279829.1239   5004706.3797   3219777.3377   6   7   0.0961   0.1326   0.0712  -0.0698   0.0852  -0.0564   0.00    0.0
2022/01/25 03:13:00.000  -2279829.1256   5004706.3720   3219777.3366   6   7   0.0960   0.1321   0.0711  -0.0696   0.0850  -0.0563   0.00    0.0
2022/01/25 03:13:30.000  -2279829.1207   5004706.3499   3219777.3300   6   7   0.0959   0.1316   0.0711  -0.0695   0.0848  -0.0562   0.00    0.0
2022/01/25 03:14:00.000  -2279829.1209   5004706.3417   3219777.3303   6   7   0.0958   0.1311   0.0710  -0.0694   0.0846  -0.0561   0.00    0.0
2022/01/25 03:14:30.000  -2279829.1165   5004706.3442   3219777.3315   6   7   0.0958   0.1307   0.0709  -0.0692   0.0844  -0.0560   0.00    0.0
2022/01/25 03:15:00.000  -2279829.1207   5004706.3487   3219777.3324   6   7   0.0957   0.1302   0.0709  -0.0691   0.0842  -0.0559   0.00    0.0
2022/01/25 03:15:30.000  -2279829.1263   5004706.3574   3219777.3334   6   7   0.0956   0.1298   0.0708  -0.0690   0.0841  -0.0558   0.00    0.0
2022/01/25 03:16:00.000  -2279829.1316   5004706.3621   3219777.3335   6   7   0.0956   0.1294   0.0708  -0.0689   0.0839  -0.0558   0.00    0.0
2022/01/25 03:16:30.000  -2279829.1374   5004706.3602   3219777.3309   6   7   0.0955   0.1289   0.0707  -0.0688   0.0838  -0.0557   0.00    0.0
2022/01/25 03:17:00.000  -2279829.1538   5004706.3726   3219777.3425   6   7   0.0954   0.1285   0.0707  -0.0687   0.0836  -0.0556   0.00    0.0
2022/01/25 03:17:30.000  -2279829.1380   5004706.3673   3219777.3390   6   7   0.0954   0.1281   0.0707  -0.0686   0.0835  -0.0556   0.00    0.0
2022/01/25 03:18:00.000  -2279829.1403   5004706.3839   3219777.3456   6   7   0.0953   0.1278   0.0707  -0.0686   0.0833  -0.0555   0.00    0.0
2022/01/25 03:18:30.000  -2279829.1394   5004706.3837   3219777.3471   6   7   0.0953   0.1274   0.0706  -0.0685   0.0832  -0.0555   0.00    0.0
2022/01/25 03:19:00.000  -2279829.1353   5004706.3675   3219777.3385   6   7   0.0952   0.1270   0.0706  -0.0684   0.0831  -0.0554   0.00    0.0
2022/01/25 03:19:30.000  -2279829.1432   5004706.3752   3219777.3426   6   7   0.0952   0.1267   0.0706  -0.0684   0.0830  -0.0554   0.00    0.0
2022/01/25 03:20:00.000  -2279829.1351   5004706.3751   3219777.3400   6   7   0.0951   0.1263   0.0706  -0.0683   0.0829  -0.0553   0.00    0.0
2022/01/25 03:20:30.000  -2279829.1426   5004706.3797   3219777.3446   6   7   0.0951   0.1260   0.0706  -0.0683   0.0828  -0.0553   0.00    0.0
2022/01/25 03:21:00.000  -2279829.1389   5004706.3508   3219777.3369   6   7   0.0950   0.1257   0.0706  -0.0683   0.0827  -0.0553   0.00    0.0
2022/01/25 03:21:30.000  -2279829.1353   5004706.3538   3219777.3361   6   7   0.0950   0.1254   0.0706  -0.0682   0.0826  -0.0552   0.00    0.0
2022/01/25 03:22:00.000  -2279829.1305   5004706.3556   3219777.3338   6   7   0.0949   0.1251   0.0706  -0.0682   0.0826  -0.0552   0.00    0.0
2022/01/25 03:22:30.000  -2279829.1307   5004706.3478   3219777.3281   6   7   0.0949   0.1248   0.0707  -0.0682   0.0825  -0.0552   0.00    0.0
2022/01/25 03:23:00.000  -2279829.1291   5004706.3379   3219777.3235   6   7   0.0949   0.1245   0.0707  -0.0682   0.0825  -0.0551   0.00    0.0
2022/01/25 03:23:30.000  -2279829.1355   5004706.3388   3219777.3273   6   7   0.0948   0.1243   0.0707  -0.0682   0.0824  -0.0551   0.00    0.0
2022/01/25 03:24:00.000  -2279829.1355   5004706.3631   3219777.3401   6   7   0.0948   0.1240   0.0708  -0.0682   0.0824  -0.0551   0.00    0.0
2022/01/25 03:24:30.000  -2279829.1337   5004706.3740   3219777.3383   6   7   0.0948   0.1237   0.0708  -0.0682   0.0823  -0.0551   0.00    0.0
2022/01/25 03:25:00.000  -2279829.1376   5004706.3525   3219777.3349   6   7   0.0948   0.1235   0.0708  -0.0682   0.0823  -0.0551   0.00    0.0
2022/01/25 03:25:30.000  -2279829.1399   5004706.3579   3219777.3407   6   7   0.0947   0.1233   0.0709  -0.0683   0.0823  -0.0551   0.00    0.0
2022/01/25 03:26:00.000  -2279829.1304   5004706.3590   3219777.3461   6   7   0.0947   0.1231   0.0710  -0.0683   0.0823  -0.0551   0.00    0.0
2022/01/25 03:26:30.000  -2279829.1296   5004706.3593   3219777.3378   6   7   0.0947   0.1229   0.0710  -0.0683   0.0823  -0.0551   0.00    0.0
2022/01/25 03:27:00.000  -2279829.1229   5004706.3423   3219777.3258   6   7   0.0946   0.1226   0.0711  -0.0684   0.0823  -0.0551   0.00    0.0
2022/01/25 03:27:30.000  -2279829.1263   5004706.3378   3219777.3318   6   7   0.0946   0.1225   0.0711  -0.0684   0.0823  -0.0551   0.00    0.0
2022/01/25 03:28:00.000  -2279829.1312   5004706.3626   3219777.3398   6   7   0.0946   0.1223   0.0712  -0.0685   0.0823  -0.0551   0.00    0.0
2022/01/25 03:28:30.000  -2279829.1368   5004706.3577   3219777.3403   6   7   0.0946   0.1221   0.0713  -0.0685   0.0823  -0.0551   0.00    0.0
2022/01/25 03:29:00.000  -2279829.1347   5004706.3521   3219777.3391   6   7   0.0946   0.1220   0.0714  -0.0686   0.0823  -0.0551   0.00    0.0
2022/01/25 03:29:30.000  -2279829.1407   5004706.3459   3219777.3323   6   7   0.0946   0.1218   0.0715  -0.0686   0.0824  -0.0551   0.00    0.0
2022/01/25 03:30:00.000  -2279829.1355   5004706.3500   3219777.3309   6   7   0.0945   0.1216   0.0715  -0.0687   0.0824  -0.0552   0.00    0.0
2022/01/25 03:30:30.000  -2279829.1352   5004706.3380   3219777.3308   6   7   0.0945   0.1215   0.0716  -0.0688   0.0824  -0.0552   0.00    0.0
2022/01/25 03:31:00.000  -2279829.1431   5004706.3605   3219777.3401   6   7   0.0945   0.1214   0.0717  -0.0689   0.0825  -0.0552   0.00    0.0
2022/01/25 03:31:30.000  -2279829.1473   5004706.3559   3219777.3328   6   7   0.0945   0.1213   0.0718  -0.0690   0.0825  -0.0552   0.00    0.0
2022/01/25 03:32:00.000  -2279829.1511   5004706.3646   3219777.3392   6   7   0.0945   0.1211   0.0719  -0.0690   0.0826  -0.0553   0.00    0.0
2022/01/25 03:32:30.000  -2279829.1538   5004706.3803   3219777.3480   6   7   0.0945   0.1211   0.0721  -0.0691   0.0827  -0.0553   0.00    0.0
2022/01/25 03:33:00.000  -2279829.1584   5004706.3850   3219777.3518   6   7   0.0945   0.1210   0.0722  -0.0692   0.0827  -0.0553   0.00    0.0
2022/01/25 03:33:30.000  -2279829.1603   5004706.3718   3219777.3433   6   7   0.0945   0.1209   0.0723  -0.0693   0.0828  -0.0554   0.00    0.0
2022/01/25 03:34:00.000  -2279829.1604   5004706.3751   3219777.3435   6   7   0.0945   0.1208   0.0724  -0.0694   0.0829  -0.0554   0.00    0.0
2022/01/25 03:34:30.000  -2279829.1638   5004706.3791   3219777.3441   6   7   0.0945   0.1207   0.0725  -0.0695   0.0830  -0.0555   0.00    0.0
2022/01/25 03:35:00.000  -2279829.1581   5004706.3711   3219777.3444   6   7   0.0945   0.1207   0.0727  -0.0697   0.0831  -0.0555   0.00    0.0
2022/01/25 03:35:30.000  -2279829.1502   5004706.3647   3219777.3439   6   7   0.0945   0.1206   0.0728  -0.0698   0.0832  -0.0556   0.00    0.0
2022/01/25 03:36:00.000  -2279829.1449   5004706.3688   3219777.3426   6   7   0.0945   0.1206   0.0729  -0.0699   0.0833  -0.0556   0.00    0.0
2022/01/25 03:36:30.000  -2279829.1391   5004706.3609   3219777.3405   6   7   0.0945   0.1205   0.0731  -0.0700   0.0834  -0.0557   0.00    0.0
2022/01/25 03:37:00.000  -2279829.1430   5004706.3577   3219777.3494   6   7   0.0945   0.1205   0.0732  -0.0701   0.0835  -0.0557   0.00    0.0
2022/01/25 03:37:30.000  -2279829.1508   5004706.3645   3219777.3498   6   7   0.0945   0.1205   0.0733  -0.0703   0.0836  -0.0558   0.00    0.0
2022/01/25 03:38:00.000  -2279829.1533   5004706.3784   3219777.3534   6   7   0.0945   0.1205   0.0735  -0.0704   0.0838  -0.0558   0.00    0.0
2022/01/25 03:39:00.000  -2279829.1488   5004706.3928   3219777.3601   6   7   0.0945   0.1205   0.0738  -0.0707   0.0840  -0.0559   0.00    0.0
2022/01/25 03:39:30.000  -2279829.1517   5004706.3901   3219777.3580   6   7   0.0945   0.1205   0.0740  -0.0708   0.0842  -0.0560   0.00    0.0
2022/01/25 03:40:00.000  -2279829.1516   5004706.4105   3219777.3655   6   7   0.0945   0.1205   0.0742  -0.0709   0.0843  -0.0561   0.00    0.0
2022/01/25 03:40:30.000  -2279829.1431   5004706.3858   3219777.3529   6   7   0.0945   0.1205   0.0743  -0.0711   0.0845  -0.0562   0.00    0.0
2022/01/25 03:41:00.000  -2279829.1479   5004706.3853   3219777.3515   6   7   0.0945   0.1205   0.0745  -0.0713   0.0846  -0.0562   0.00    0.0
2022/01/25 03:41:30.000  -2279829.1496   5004706.4044   3219777.3640   6   7   0.0945   0.1206   0.0747  -0.0714   0.0848  -0.0563   0.00    0.0
2022/01/25 03:42:00.000  -2279829.1430   5004706.3866   3219777.3525   6   7   0.0946   0.1206   0.0748  -0.0716   0.0850  -0.0564   0.00    0.0
2022/01/25 03:42:30.000  -2279829.1474   5004706.3946   3219777.3567   6   7   0.0946   0.1207   0.0750  -0.0717   0.0851  -0.0565   0.00    0.0
2022/01/25 03:43:00.000  -2279829.1411   5004706.3805   3219777.3532   6   7   0.0946   0.1207   0.0752  -0.0719   0.0853  -0.0565   0.00    0.0
2022/01/25 03:43:30.000  -2279829.1497   5004706.3828   3219777.3509   6   7   0.0946   0.1208   0.0754  -0.0721   0.0855  -0.0566   0.00    0.0
2022/01/25 03:44:00.000  -2279829.1549   5004706.3966   3219777.3527   6   7   0.0946   0.1208   0.0756  -0.0723   0.0857  -0.0567   0.00    0.0
2022/01/25 03:44:30.000  -2279829.1572   5004706.3978   3219777.3543   6   7   0.0946   0.1209   0.0758  -0.0724   0.0858  -0.0568   0.00    0.0
