% program   : RTKLIB ver.2.4.3
% inp file  : G:\HASPPP\ppp_example\data\novatel\*.23o
% inp file  : G:\HASPPP\ppp_example\data\novatel\*.23p
% inp file  : G:\HASPPP\ppp_example\data\novatel\*.HAS
% obs start : 2023/05/31 00:00:00.0 GPST (week2264 259200.0s)
% obs end   : 2023/06/01 23:59:30.0 GPST (week2264 431970.0s)
% pos mode  : PPP Static
% solution  : Forward
% elev mask : 5.0 deg
% dynamics  : off
% tidecorr  : on
% tropo opt : Estimate ZTD
% ephemeris : Broadcast+SSR APC
% navi sys  : GPS Galileo
% antenna1  : LEIAR25.R4      LEIT  ( 0.0000  0.0000  0.0590)
%
% (x/y/z-ecef=WGS84,Q=1:fix,2:float,3:sbas,4:dgps,5:single,6:ppp,ns=# of satellites)
%  GPST                      x-ecef(m)      y-ecef(m)      z-ecef(m)   Q  ns   sdx(m)   sdy(m)   sdz(m)  sdxy(m)  sdyz(m)  sdzx(m) age(s)  ratio
2023/05/31 00:00:00.000   3844060.4701    709661.3304   5023131.8928   6  14   2.4215   1.3800   4.9168   0.5954   1.5939   1.9854   0.00    0.0
2023/05/31 00:00:30.000   3844059.7772    709661.5268   5023131.4486   6  14   1.6479   0.9543   2.8551   0.3334   0.9498   1.2829   0.00    0.0
2023/05/31 00:01:00.000   3844060.0322    709661.4339   5023131.1263   6  14   1.2668   0.7621   1.8961   0.1448   0.6469   0.9489   0.00    0.0
2023/05/31 00:01:30.000   3844059.8376    709661.3675   5023130.3116   6  14   1.0198   0.6473   1.3664  -0.1521   0.4742   0.7448   0.00    0.0
2023/05/31 00:02:00.000   3844059.7098    709661.3007   5023129.9119   6  14   0.8428   0.5691   1.0404  -0.2148   0.3630   0.6029   0.00    0.0
2023/05/31 00:02:30.000   3844059.6738    709661.2437   5023129.6153   6  13   0.7163   0.5127   0.8299  -0.2367   0.2900   0.5070   0.00    0.0
2023/05/31 00:03:00.000   3844059.7006    709661.2842   5023129.5569   6  13   0.6204   0.4686   0.6835  -0.2451   0.2359   0.4357   0.00    0.0
2023/05/31 00:03:30.000   3844059.7014    709661.3441   5023129.6636   6  13   0.5457   0.4330   0.5768  -0.2466   0.1941   0.3809   0.00    0.0
2023/05/31 00:04:00.000   3844059.6942    709661.3493   5023129.6886   6  13   0.4862   0.4035   0.4962  -0.2444   0.1606   0.3374   0.00    0.0
2023/05/31 00:04:30.000   3844059.6924    709661.4064   5023129.8005   6  13   0.4379   0.3784   0.4332  -0.2401   0.1331   0.3019   0.00    0.0
2023/05/31 00:05:00.000   3844059.6468    709661.4948   5023129.7900   6  13   0.3979   0.3567   0.3829  -0.2346   0.1099   0.2724   0.00    0.0
2023/05/31 00:05:30.000   3844059.7071    709661.4862   5023129.7927   6  13   0.3644   0.3377   0.3417  -0.2284   0.0898   0.2476   0.00    0.0
2023/05/31 00:06:00.000   3844059.6627    709661.5074   5023129.6322   6  14   0.3359   0.3208   0.3076  -0.2219   0.0720   0.2265   0.00    0.0
2023/05/31 00:06:30.000   3844059.6797    709661.5497   5023129.6994   6  14   0.3114   0.3057   0.2789  -0.2153   0.0556   0.2083   0.00    0.0
2023/05/31 00:07:00.000   3844059.6561    709661.6074   5023129.7113   6  14   0.2901   0.2920   0.2544  -0.2087   0.0396   0.1924   0.00    0.0
2023/05/31 00:07:30.000   3844059.6359    709661.6114   5023129.6989   6  14   0.2715   0.2796   0.2334  -0.2022   0.0212   0.1787   0.00    0.0
2023/05/31 00:08:00.000   3844059.6364    709661.6111   5023129.7064   6  14   0.2551   0.2681   0.2153  -0.1958  -0.0192   0.1665   0.00    0.0
2023/05/31 00:08:30.000   3844059.6348    709661.5990   5023129.6930   6  14   0.2405   0.2576   0.1994  -0.1897  -0.0311   0.1558   0.00    0.0
2023/05/31 00:09:00.000   3844059.6355    709661.6326   5023129.7104   6  14   0.2274   0.2479   0.1855  -0.1838  -0.0374   0.1463   0.00    0.0
2023/05/31 00:09:30.000   3844059.6196    709661.6377   5023129.7057   6  14   0.2156   0.2389   0.1732  -0.1780  -0.0413   0.1378   0.00    0.0
2023/05/31 00:10:00.000   3844059.6275    709661.6355   5023129.7149   6  14   0.2050   0.2304   0.1622  -0.1725  -0.0438   0.1301   0.00    0.0
2023/05/31 00:10:30.000   3844059.6427    709661.6203   5023129.7202   6  14   0.1953   0.2226   0.1525  -0.1673  -0.0454   0.1232   0.00    0.0
2023/05/31 00:11:00.000   3844059.6630    709661.6153   5023129.7471   6  14   0.1864   0.2152   0.1437  -0.1622  -0.0464   0.1169   0.00    0.0
2023/05/31 00:11:30.000   3844059.6814    709661.6042   5023129.7557   6  14   0.1782   0.2082   0.1357  -0.1574  -0.0470   0.1112   0.00    0.0
2023/05/31 00:12:00.000   3844059.7089    709661.6056   5023129.7768   6  14   0.1707   0.2017   0.1286  -0.1527  -0.0472   0.1059   0.00    0.0
2023/05/31 00:12:30.000   3844059.7144    709661.6046   5023129.7956   6  14   0.1637   0.1955   0.1220  -0.1483  -0.0472   0.1011   0.00    0.0
2023/05/31 00:13:00.000   3844059.7021    709661.6395   5023129.8073   6  14   0.1573   0.1897   0.1161  -0.1440  -0.0470   0.0967   0.00    0.0
2023/05/31 00:13:30.000   3844059.6978    709661.6562   5023129.8152   6  15   0.1513   0.1841   0.1106  -0.1400  -0.0467   0.0926   0.00    0.0
2023/05/31 00:14:00.000   3844059.7017    709661.6663   5023129.8149   6  15   0.1457   0.1789   0.1056  -0.1361  -0.0463   0.0888   0.00    0.0
2023/05/31 00:14:30.000   3844059.7021    709661.6675   5023129.8205   6  16   0.1403   0.1738   0.1010  -0.1322  -0.0458   0.0854   0.00    0.0
2023/05/31 00:15:00.000   3844059.7038    709661.6663   5023129.8226   6  16   0.1353   0.1689   0.0968  -0.1285  -0.0453   0.0821   0.00    0.0
2023/05/31 00:15:30.000   3844059.7065    709661.6699   5023129.8219   6  16   0.1306   0.1643   0.0928  -0.1250  -0.0446   0.0790   0.00    0.0
2023/05/31 00:16:00.000   3844059.7052    709661.6715   5023129.8234   6  16   0.1262   0.1599   0.0891  -0.1216  -0.0439   0.0762   0.00    0.0
2023/05/31 00:16:30.000   3844059.7021    709661.6749   5023129.8232   6  16   0.1220   0.1557   0.0857  -0.1183  -0.0431   0.0734   0.00    0.0
2023/05/31 00:17:00.000   3844059.6970    709661.6802   5023129.8170   6  17   0.1181   0.1517   0.0824  -0.1152  -0.0422   0.0708   0.00    0.0
2023/05/31 00:17:30.000   3844059.6896    709661.6787   5023129.8026   6  17   0.1143   0.1479   0.0793  -0.1122  -0.0412   0.0683   0.00    0.0
2023/05/31 00:18:00.000   3844059.6828    709661.6926   5023129.7997   6  17   0.1107   0.1442   0.0765  -0.1093  -0.0403   0.0659   0.00    0.0
2023/05/31 00:18:30.000   3844059.6784    709661.7066   5023129.7998   6  17   0.1073   0.1406   0.0737  -0.1064  -0.0392   0.0637   0.00    0.0
2023/05/31 00:19:00.000   3844059.6716    709661.7196   5023129.7861   6  17   0.1041   0.1372   0.0711  -0.1037  -0.0382   0.0615   0.00    0.0
2023/05/31 00:19:30.000   3844059.6641    709661.7287   5023129.7826   6  17   0.1010   0.1339   0.0687  -0.1011  -0.0371   0.0594   0.00    0.0
2023/05/31 00:20:00.000   3844059.6668    709661.7326   5023129.7821   6  17   0.0980   0.1307   0.0663  -0.0985  -0.0361   0.0574   0.00    0.0
2023/05/31 00:20:30.000   3844059.6554    709661.7452   5023129.7742   6  17   0.0952   0.1277   0.0641  -0.0961  -0.0350   0.0555   0.00    0.0
2023/05/31 00:21:00.000   3844059.6544    709661.7456   5023129.7744   6  17   0.0925   0.1249   0.0620  -0.0939  -0.0341   0.0537   0.00    0.0
2023/05/31 00:21:30.000   3844059.6501    709661.7484   5023129.7726   6  17   0.0900   0.1222   0.0600  -0.0917  -0.0332   0.0520   0.00    0.0
2023/05/31 00:22:00.000   3844059.6546    709661.7543   5023129.7756   6  17   0.0876   0.1196   0.0581  -0.0896  -0.0323   0.0503   0.00    0.0
2023/05/31 00:22:30.000   3844059.6527    709661.7568   5023129.7742   6  17   0.0853   0.1170   0.0563  -0.0876  -0.0314   0.0488   0.00    0.0
2023/05/31 00:23:00.000   3844059.6547    709661.7581   5023129.7767   6  18   0.0831   0.1146   0.0546  -0.0856  -0.0305   0.0472   0.00    0.0
2023/05/31 00:23:30.000   3844059.6527    709661.7547   5023129.7753   6  18   0.0810   0.1122   0.0529  -0.0837  -0.0296   0.0458   0.00    0.0
2023/05/31 00:24:00.000   3844059.6532    709661.7592   5023129.7776   6  18   0.0789   0.1098   0.0513  -0.0818  -0.0287   0.0444   0.00    0.0
2023/05/31 00:24:30.000   3844059.6588    709661.7516   5023129.7809   6  18   0.0769   0.1076   0.0498  -0.0800  -0.0278   0.0430   0.00    0.0
2023/05/31 00:25:00.000   3844059.6637    709661.7413   5023129.7838   6  18   0.0750   0.1054   0.0484  -0.0782  -0.0270   0.0417   0.00    0.0
2023/05/31 00:25:30.000   3844059.6741    709661.7273   5023129.7883   6  17   0.0733   0.1034   0.0470  -0.0767  -0.0263   0.0405   0.00    0.0
2023/05/31 00:26:00.000   3844059.6843    709661.7213   5023129.8076   6  16   0.0717   0.1016   0.0457  -0.0752  -0.0255   0.0394   0.00    0.0
2023/05/31 00:26:30.000   3844059.6954    709661.7143   5023129.8251   6  16   0.0701   0.0997   0.0445  -0.0737  -0.0248   0.0383   0.00    0.0
2023/05/31 00:27:00.000   3844059.7060    709661.7082   5023129.8440   6  17   0.0685   0.0980   0.0433  -0.0723  -0.0240   0.0372   0.00    0.0
2023/05/31 00:27:30.000   3844059.7186    709661.7015   5023129.8556   6  17   0.0670   0.0962   0.0421  -0.0709  -0.0233   0.0362   0.00    0.0
2023/05/31 00:28:00.000   3844059.7245    709661.7002   5023129.8643   6  17   0.0656   0.0945   0.0411  -0.0696  -0.0226   0.0352   0.00    0.0
2023/05/31 00:28:30.000   3844059.7294    709661.6996   5023129.8713   6  17   0.0642   0.0929   0.0400  -0.0683  -0.0219   0.0343   0.00    0.0
2023/05/31 00:29:00.000   3844059.7320    709661.6975   5023129.8741   6  17   0.0629   0.0913   0.0390  -0.0670  -0.0213   0.0334   0.00    0.0
2023/05/31 00:29:30.000   3844059.7305    709661.7022   5023129.8741   6  17   0.0615   0.0897   0.0381  -0.0657  -0.0206   0.0325   0.00    0.0
2023/05/31 00:30:00.000   3844059.7321    709661.7022   5023129.8773   6  17   0.0603   0.0882   0.0372  -0.0645  -0.0200   0.0316   0.00    0.0
2023/05/31 00:30:30.000   3844059.7302    709661.7038   5023129.8757   6  17   0.0591   0.0868   0.0363  -0.0633  -0.0194   0.0308   0.00    0.0
2023/05/31 00:31:00.000   3844059.7255    709661.7078   5023129.8738   6  17   0.0579   0.0853   0.0354  -0.0622  -0.0188   0.0300   0.00    0.0
2023/05/31 00:31:30.000   3844059.7224    709661.7120   5023129.8737   6  17   0.0567   0.0839   0.0346  -0.0610  -0.0182   0.0293   0.00    0.0
2023/05/31 00:32:00.000   3844059.7204    709661.7152   5023129.8736   6  17   0.0556   0.0826   0.0339  -0.0600  -0.0177   0.0286   0.00    0.0
2023/05/31 00:32:30.000   3844059.7192    709661.7165   5023129.8733   6  17   0.0545   0.0813   0.0331  -0.0589  -0.0172   0.0279   0.00    0.0
2023/05/31 00:33:00.000   3844059.7190    709661.7159   5023129.8714   6  16   0.0535   0.0800   0.0324  -0.0579  -0.0166   0.0272   0.00    0.0
2023/05/31 00:33:30.000   3844059.7172    709661.7180   5023129.8688   6  16   0.0525   0.0788   0.0317  -0.0569  -0.0162   0.0266   0.00    0.0
2023/05/31 00:34:00.000   3844059.7178    709661.7206   5023129.8695   6  16   0.0515   0.0776   0.0311  -0.0560  -0.0157   0.0260   0.00    0.0
2023/05/31 00:34:30.000   3844059.7156    709661.7237   5023129.8690   6  16   0.0506   0.0765   0.0304  -0.0551  -0.0152   0.0254   0.00    0.0
2023/05/31 00:35:00.000   3844059.7147    709661.7228   5023129.8664   6  16   0.0497   0.0754   0.0298  -0.0542  -0.0148   0.0248   0.00    0.0
2023/05/31 00:35:30.000   3844059.7121    709661.7255   5023129.8655   6  16   0.0488   0.0743   0.0292  -0.0533  -0.0144   0.0243   0.00    0.0
2023/05/31 00:36:00.000   3844059.7127    709661.7252   5023129.8644   6  16   0.0480   0.0732   0.0287  -0.0524  -0.0140   0.0238   0.00    0.0
2023/05/31 00:36:30.000   3844059.7113    709661.7257   5023129.8622   6  16   0.0472   0.0722   0.0281  -0.0516  -0.0136   0.0233   0.00    0.0
2023/05/31 00:37:00.000   3844059.7108    709661.7254   5023129.8619   6  16   0.0464   0.0712   0.0276  -0.0508  -0.0132   0.0228   0.00    0.0
2023/05/31 00:37:30.000   3844059.7088    709661.7247   5023129.8597   6  16   0.0456   0.0702   0.0271  -0.0500  -0.0129   0.0223   0.00    0.0
2023/05/31 00:38:00.000   3844059.7095    709661.7222   5023129.8582   6  16   0.0448   0.0693   0.0266  -0.0493  -0.0126   0.0219   0.00    0.0
2023/05/31 00:38:30.000   3844059.7080    709661.7214   5023129.8565   6  16   0.0441   0.0683   0.0262  -0.0486  -0.0123   0.0215   0.00    0.0
2023/05/31 00:39:00.000   3844059.7082    709661.7193   5023129.8569   6  16   0.0434   0.0674   0.0257  -0.0478  -0.0120   0.0210   0.00    0.0
2023/05/31 00:39:30.000   3844059.7063    709661.7194   5023129.8555   6  16   0.0427   0.0666   0.0253  -0.0472  -0.0117   0.0207   0.00    0.0
2023/05/31 00:40:00.000   3844059.7019    709661.7233   5023129.8544   6  16   0.0421   0.0657   0.0249  -0.0465  -0.0114   0.0203   0.00    0.0
2023/05/31 00:40:30.000   3844059.7027    709661.7190   5023129.8525   6  16   0.0414   0.0649   0.0245  -0.0458  -0.0111   0.0199   0.00    0.0
2023/05/31 00:41:00.000   3844059.7052    709661.7146   5023129.8529   6  16   0.0408   0.0641   0.0241  -0.0452  -0.0109   0.0195   0.00    0.0
2023/05/31 00:41:30.000   3844059.7025    709661.7167   5023129.8515   6  15   0.0402   0.0633   0.0237  -0.0446  -0.0106   0.0192   0.00    0.0
2023/05/31 00:42:00.000   3844059.7010    709661.7163   5023129.8519   6  15   0.0396   0.0626   0.0234  -0.0440  -0.0104   0.0189   0.00    0.0
2023/05/31 00:42:30.000   3844059.7003    709661.7173   5023129.8513   6  14   0.0390   0.0618   0.0231  -0.0434  -0.0101   0.0186   0.00    0.0
2023/05/31 00:43:00.000   3844059.6979    709661.7198   5023129.8495   6  13   0.0385   0.0611   0.0227  -0.0428  -0.0099   0.0183   0.00    0.0
2023/05/31 00:43:30.000   3844059.6996    709661.7159   5023129.8469   6  13   0.0380   0.0604   0.0224  -0.0423  -0.0097   0.0181   0.00    0.0
2023/05/31 00:44:00.000   3844059.6990    709661.7169   5023129.8442   6  13   0.0375   0.0598   0.0222  -0.0418  -0.0095   0.0178   0.00    0.0
2023/05/31 00:44:30.000   3844059.6983    709661.7166   5023129.8428   6  13   0.0370   0.0591   0.0219  -0.0412  -0.0094   0.0176   0.00    0.0
2023/05/31 00:45:00.000   3844059.6973    709661.7179   5023129.8415   6  13   0.0365   0.0584   0.0216  -0.0407  -0.0092   0.0174   0.00    0.0
2023/05/31 00:45:30.000   3844059.6955    709661.7203   5023129.8410   6  13   0.0361   0.0578   0.0213  -0.0402  -0.0090   0.0171   0.00    0.0
2023/05/31 00:46:00.000   3844059.6935    709661.7223   5023129.8395   6  13   0.0356   0.0572   0.0211  -0.0397  -0.0088   0.0169   0.00    0.0
2023/05/31 00:46:30.000   3844059.6937    709661.7216   5023129.8383   6  13   0.0351   0.0566   0.0208  -0.0393  -0.0087   0.0167   0.00    0.0
2023/05/31 00:47:00.000   3844059.6941    709661.7200   5023129.8368   6  13   0.0347   0.0560   0.0206  -0.0388  -0.0085   0.0165   0.00    0.0
2023/05/31 00:47:30.000   3844059.6943    709661.7209   5023129.8358   6  13   0.0343   0.0554   0.0204  -0.0383  -0.0084   0.0163   0.00    0.0
2023/05/31 00:48:00.000   3844059.6958    709661.7189   5023129.8343   6  14   0.0338   0.0548   0.0202  -0.0379  -0.0082   0.0161   0.00    0.0
2023/05/31 00:48:30.000   3844059.6955    709661.7190   5023129.8331   6  14   0.0334   0.0542   0.0199  -0.0374  -0.0081   0.0159   0.00    0.0
2023/05/31 00:49:00.000   3844059.6956    709661.7179   5023129.8308   6  14   0.0330   0.0537   0.0197  -0.0370  -0.0079   0.0157   0.00    0.0
2023/05/31 00:49:30.000   3844059.6943    709661.7193   5023129.8294   6  14   0.0326   0.0531   0.0195  -0.0365  -0.0078   0.0155   0.00    0.0
2023/05/31 00:50:00.000   3844059.6936    709661.7179   5023129.8273   6  14   0.0322   0.0526   0.0193  -0.0361  -0.0077   0.0154   0.00    0.0
2023/05/31 00:50:30.000   3844059.6922    709661.7193   5023129.8252   6  14   0.0318   0.0521   0.0191  -0.0357  -0.0075   0.0152   0.00    0.0
2023/05/31 00:51:00.000   3844059.6927    709661.7185   5023129.8235   6  14   0.0315   0.0516   0.0190  -0.0353  -0.0074   0.0150   0.00    0.0
2023/05/31 00:51:30.000   3844059.6917    709661.7199   5023129.8219   6  14   0.0311   0.0511   0.0188  -0.0349  -0.0073   0.0149   0.00    0.0
2023/05/31 00:52:00.000   3844059.6917    709661.7209   5023129.8202   6  14   0.0308   0.0506   0.0186  -0.0345  -0.0072   0.0147   0.00    0.0
2023/05/31 00:52:30.000   3844059.6912    709661.7213   5023129.8186   6  14   0.0304   0.0501   0.0184  -0.0342  -0.0071   0.0146   0.00    0.0
2023/05/31 00:53:00.000   3844059.6913    709661.7204   5023129.8169   6  14   0.0301   0.0496   0.0183  -0.0338  -0.0069   0.0144   0.00    0.0
2023/05/31 00:53:30.000   3844059.6913    709661.7203   5023129.8151   6  14   0.0297   0.0492   0.0181  -0.0334  -0.0068   0.0143   0.00    0.0
2023/05/31 00:54:00.000   3844059.6901    709661.7215   5023129.8131   6  14   0.0294   0.0487   0.0180  -0.0330  -0.0067   0.0142   0.00    0.0
2023/05/31 00:54:30.000   3844059.6907    709661.7193   5023129.8108   6  14   0.0291   0.0482   0.0178  -0.0327  -0.0066   0.0140   0.00    0.0
2023/05/31 00:55:00.000   3844059.6895    709661.7193   5023129.8086   6  14   0.0287   0.0478   0.0177  -0.0323  -0.0065   0.0139   0.00    0.0
2023/05/31 00:55:30.000   3844059.6897    709661.7194   5023129.8074   6  14   0.0284   0.0474   0.0175  -0.0320  -0.0064   0.0138   0.00    0.0
2023/05/31 00:56:00.000   3844059.6893    709661.7181   5023129.8060   6  14   0.0281   0.0469   0.0174  -0.0316  -0.0063   0.0137   0.00    0.0
2023/05/31 00:56:30.000   3844059.6899    709661.7172   5023129.8056   6  14   0.0278   0.0465   0.0173  -0.0313  -0.0062   0.0136   0.00    0.0
2023/05/31 00:57:00.000   3844059.6889    709661.7134   5023129.7987   6  14   0.0275   0.0461   0.0171  -0.0310  -0.0061   0.0134   0.00    0.0
2023/05/31 00:57:30.000   3844059.6900    709661.7063   5023129.7927   6  14   0.0272   0.0457   0.0170  -0.0306  -0.0060   0.0133   0.00    0.0
2023/05/31 00:58:00.000   3844059.6914    709661.6991   5023129.7866   6  14   0.0269   0.0453   0.0169  -0.0303  -0.0059   0.0132   0.00    0.0
2023/05/31 00:58:30.000   3844059.6915    709661.6944   5023129.7816   6  14   0.0267   0.0449   0.0168  -0.0300  -0.0058   0.0131   0.00    0.0
2023/05/31 00:59:00.000   3844059.6938    709661.6879   5023129.7774   6  14   0.0264   0.0445   0.0167  -0.0297  -0.0057   0.0130   0.00    0.0
2023/05/31 00:59:30.000   3844059.6951    709661.6818   5023129.7728   6  14   0.0261   0.0441   0.0166  -0.0294  -0.0056   0.0129   0.00    0.0
2023/05/31 01:00:00.000   3844059.6971    709661.6765   5023129.7688   6  14   0.0258   0.0437   0.0165  -0.0290  -0.0055   0.0128   0.00    0.0
2023/05/31 01:00:30.000   3844059.6985    709661.6703   5023129.7643   6  14   0.0256   0.0433   0.0164  -0.0287  -0.0054   0.0127   0.00    0.0
2023/05/31 01:01:00.000   3844059.6995    709661.6655   5023129.7606   6  14   0.0253   0.0429   0.0163  -0.0284  -0.0053   0.0126   0.00    0.0
2023/05/31 01:01:30.000   3844059.7010    709661.6611   5023129.7575   6  14   0.0250   0.0426   0.0162  -0.0282  -0.0052   0.0125   0.00    0.0
2023/05/31 01:02:00.000   3844059.7017    709661.6576   5023129.7550   6  14   0.0248   0.0422   0.0161  -0.0279  -0.0051   0.0124   0.00    0.0
2023/05/31 01:02:30.000   3844059.7037    709661.6531   5023129.7530   6  13   0.0246   0.0418   0.0160  -0.0276  -0.0050   0.0124   0.00    0.0
2023/05/31 01:03:00.000   3844059.7049    709661.6495   5023129.7509   6  13   0.0243   0.0415   0.0159  -0.0273  -0.0049   0.0123   0.00    0.0
2023/05/31 01:03:30.000   3844059.7066    709661.6460   5023129.7488   6  13   0.0241   0.0412   0.0158  -0.0270  -0.0048   0.0122   0.00    0.0
2023/05/31 01:04:00.000   3844059.7088    709661.6407   5023129.7467   6  13   0.0239   0.0408   0.0157  -0.0267  -0.0047   0.0122   0.00    0.0
2023/05/31 01:04:30.000   3844059.7107    709661.6354   5023129.7455   6  14   0.0237   0.0405   0.0156  -0.0265  -0.0046   0.0121   0.00    0.0
2023/05/31 01:05:00.000   3844059.7116    709661.6315   5023129.7434   6  14   0.0234   0.0401   0.0155  -0.0262  -0.0046   0.0120   0.00    0.0
2023/05/31 01:05:30.000   3844059.7115    709661.6284   5023129.7413   6  14   0.0232   0.0398   0.0155  -0.0259  -0.0045   0.0119   0.00    0.0
2023/05/31 01:06:00.000   3844059.7116    709661.6243   5023129.7392   6  14   0.0230   0.0395   0.0154  -0.0257  -0.0044   0.0118   0.00    0.0
2023/05/31 01:06:30.000   3844059.7110    709661.6225   5023129.7376   6  14   0.0228   0.0392   0.0153  -0.0254  -0.0043   0.0118   0.00    0.0
2023/05/31 01:07:00.000   3844059.7115    709661.6182   5023129.7362   6  14   0.0225   0.0389   0.0152  -0.0252  -0.0042   0.0117   0.00    0.0
2023/05/31 01:07:30.000   3844059.7116    709661.6153   5023129.7356   6  14   0.0223   0.0385   0.0152  -0.0249  -0.0041   0.0116   0.00    0.0
2023/05/31 01:08:00.000   3844059.7106    709661.6134   5023129.7347   6  14   0.0221   0.0382   0.0151  -0.0247  -0.0040   0.0116   0.00    0.0
2023/05/31 01:08:30.000   3844059.7109    709661.6096   5023129.7337   6  15   0.0219   0.0379   0.0150  -0.0244  -0.0039   0.0115   0.00    0.0
2023/05/31 01:09:00.000   3844059.7107    709661.6078   5023129.7330   6  15   0.0217   0.0376   0.0150  -0.0242  -0.0039   0.0114   0.00    0.0
2023/05/31 01:09:30.000   3844059.7105    709661.6056   5023129.7316   6  15   0.0215   0.0373   0.0149  -0.0240  -0.0038   0.0114   0.00    0.0
2023/05/31 01:10:00.000   3844059.7109    709661.6035   5023129.7306   6  15   0.0213   0.0371   0.0148  -0.0237  -0.0037   0.0113   0.00    0.0
2023/05/31 01:10:30.000   3844059.7111    709661.6013   5023129.7300   6  15   0.0211   0.0368   0.0148  -0.0235  -0.0036   0.0112   0.00    0.0
2023/05/31 01:11:00.000   3844059.7115    709661.5993   5023129.7293   6  15   0.0209   0.0365   0.0147  -0.0233  -0.0035   0.0112   0.00    0.0
2023/05/31 01:11:30.000   3844059.7114    709661.5979   5023129.7287   6  15   0.0207   0.0362   0.0146  -0.0231  -0.0034   0.0111   0.00    0.0
2023/05/31 01:12:00.000   3844059.7120    709661.5964   5023129.7283   6  15   0.0206   0.0359   0.0146  -0.0228  -0.0034   0.0111   0.00    0.0
2023/05/31 01:12:30.000   3844059.7122    709661.5951   5023129.7280   6  15   0.0204   0.0357   0.0145  -0.0226  -0.0033   0.0110   0.00    0.0
2023/05/31 01:13:00.000   3844059.7129    709661.5933   5023129.7282   6  15   0.0202   0.0354   0.0145  -0.0224  -0.0032   0.0110   0.00    0.0
2023/05/31 01:13:30.000   3844059.7133    709661.5919   5023129.7283   6  15   0.0200   0.0351   0.0144  -0.0222  -0.0031   0.0109   0.00    0.0
2023/05/31 01:14:00.000   3844059.7142    709661.5899   5023129.7278   6  15   0.0198   0.0349   0.0144  -0.0220  -0.0031   0.0109   0.00    0.0
2023/05/31 01:14:30.000   3844059.7149    709661.5892   5023129.7280   6  15   0.0197   0.0346   0.0143  -0.0218  -0.0030   0.0108   0.00    0.0
2023/05/31 01:15:00.000   3844059.7155    709661.5876   5023129.7275   6  15   0.0195   0.0344   0.0143  -0.0216  -0.0029   0.0108   0.00    0.0
2023/05/31 01:15:30.000   3844059.7152    709661.5860   5023129.7275   6  15   0.0193   0.0341   0.0142  -0.0214  -0.0028   0.0107   0.00    0.0
2023/05/31 01:16:00.000   3844059.7156    709661.5849   5023129.7276   6  15   0.0192   0.0339   0.0141  -0.0212  -0.0028   0.0107   0.00    0.0
2023/05/31 01:16:30.000   3844059.7160    709661.5832   5023129.7277   6  15   0.0190   0.0336   0.0141  -0.0210  -0.0027   0.0106   0.00    0.0
2023/05/31 01:17:00.000   3844059.7159    709661.5826   5023129.7277   6  15   0.0189   0.0334   0.0140  -0.0208  -0.0026   0.0106   0.00    0.0
2023/05/31 01:17:30.000   3844059.7161    709661.5816   5023129.7276   6  15   0.0187   0.0331   0.0140  -0.0206  -0.0026   0.0105   0.00    0.0
2023/05/31 01:18:00.000   3844059.7161    709661.5812   5023129.7275   6  15   0.0186   0.0329   0.0139  -0.0204  -0.0025   0.0105   0.00    0.0
2023/05/31 01:18:30.000   3844059.7161    709661.5805   5023129.7270   6  15   0.0184   0.0327   0.0139  -0.0202  -0.0025   0.0104   0.00    0.0
2023/05/31 01:19:00.000   3844059.7158    709661.5793   5023129.7271   6  15   0.0183   0.0324   0.0138  -0.0200  -0.0024   0.0104   0.00    0.0
2023/05/31 01:19:30.000   3844059.7143    709661.5799   5023129.7266   6  15   0.0181   0.0322   0.0138  -0.0199  -0.0023   0.0103   0.00    0.0
2023/05/31 01:20:00.000   3844059.7131    709661.5803   5023129.7260   6  15   0.0180   0.0320   0.0137  -0.0197  -0.0023   0.0103   0.00    0.0
2023/05/31 01:20:30.000   3844059.7118    709661.5796   5023129.7256   6  15   0.0178   0.0317   0.0137  -0.0195  -0.0022   0.0102   0.00    0.0
2023/05/31 01:21:00.000   3844059.7110    709661.5783   5023129.7253   6  15   0.0177   0.0315   0.0136  -0.0193  -0.0022   0.0102   0.00    0.0
2023/05/31 01:21:30.000   3844059.7102    709661.5777   5023129.7251   6  15   0.0175   0.0313   0.0136  -0.0192  -0.0022   0.0102   0.00    0.0
2023/05/31 01:22:00.000   3844059.7097    709661.5773   5023129.7249   6  15   0.0174   0.0311   0.0135  -0.0190  -0.0021   0.0101   0.00    0.0
2023/05/31 01:22:30.000   3844059.7088    709661.5778   5023129.7248   6  15   0.0173   0.0309   0.0135  -0.0188  -0.0021   0.0101   0.00    0.0
2023/05/31 01:23:00.000   3844059.7081    709661.5778   5023129.7249   6  15   0.0171   0.0307   0.0134  -0.0187  -0.0020   0.0100   0.00    0.0
2023/05/31 01:23:30.000   3844059.7071    709661.5775   5023129.7247   6  15   0.0170   0.0305   0.0134  -0.0185  -0.0020   0.0100   0.00    0.0
2023/05/31 01:24:00.000   3844059.7069    709661.5767   5023129.7246   6  16   0.0169   0.0303   0.0134  -0.0183  -0.0020   0.0100   0.00    0.0
2023/05/31 01:24:30.000   3844059.7065    709661.5763   5023129.7246   6  16   0.0168   0.0301   0.0133  -0.0182  -0.0020   0.0099   0.00    0.0
2023/05/31 01:25:00.000   3844059.7062    709661.5767   5023129.7247   6  16   0.0166   0.0299   0.0133  -0.0180  -0.0019   0.0099   0.00    0.0
2023/05/31 01:25:30.000   3844059.7063    709661.5768   5023129.7251   6  16   0.0165   0.0297   0.0132  -0.0179  -0.0019   0.0098   0.00    0.0
2023/05/31 01:26:00.000   3844059.7055    709661.5776   5023129.7255   6  16   0.0164   0.0295   0.0132  -0.0177  -0.0019   0.0098   0.00    0.0
2023/05/31 01:26:30.000   3844059.7025    709661.5807   5023129.7283   6  16   0.0163   0.0293   0.0131  -0.0176  -0.0019   0.0098   0.00    0.0
2023/05/31 01:27:00.000   3844059.7019    709661.5797   5023129.7309   6  16   0.0161   0.0291   0.0131  -0.0174  -0.0019   0.0097   0.00    0.0
2023/05/31 01:27:30.000   3844059.7019    709661.5791   5023129.7333   6  16   0.0160   0.0289   0.0130  -0.0173  -0.0019   0.0097   0.00    0.0
2023/05/31 01:28:00.000   3844059.7017    709661.5779   5023129.7353   6  16   0.0159   0.0287   0.0130  -0.0171  -0.0019   0.0097   0.00    0.0
2023/05/31 01:28:30.000   3844059.7011    709661.5767   5023129.7369   6  16   0.0158   0.0285   0.0129  -0.0170  -0.0019   0.0096   0.00    0.0
2023/05/31 01:29:00.000   3844059.7004    709661.5758   5023129.7384   6  16   0.0157   0.0283   0.0129  -0.0168  -0.0019   0.0096   0.00    0.0
2023/05/31 01:29:30.000   3844059.7004    709661.5753   5023129.7402   6  16   0.0156   0.0281   0.0129  -0.0167  -0.0019   0.0096   0.00    0.0
2023/05/31 01:30:00.000   3844059.7000    709661.5749   5023129.7419   6  16   0.0155   0.0280   0.0128  -0.0166  -0.0019   0.0095   0.00    0.0
2023/05/31 01:30:30.000   3844059.7000    709661.5734   5023129.7442   6  16   0.0154   0.0278   0.0128  -0.0164  -0.0019   0.0095   0.00    0.0
2023/05/31 01:31:00.000   3844059.6991    709661.5727   5023129.7458   6  16   0.0153   0.0276   0.0127  -0.0163  -0.0019   0.0095   0.00    0.0
2023/05/31 01:31:30.000   3844059.6985    709661.5723   5023129.7472   6  16   0.0152   0.0274   0.0127  -0.0162  -0.0019   0.0094   0.00    0.0
2023/05/31 01:32:00.000   3844059.6978    709661.5722   5023129.7486   6  16   0.0151   0.0273   0.0127  -0.0160  -0.0019   0.0094   0.00    0.0
2023/05/31 01:32:30.000   3844059.6972    709661.5727   5023129.7500   6  15   0.0150   0.0271   0.0126  -0.0159  -0.0019   0.0094   0.00    0.0
2023/05/31 01:33:00.000   3844059.6960    709661.5726   5023129.7509   6  15   0.0149   0.0269   0.0126  -0.0158  -0.0019   0.0094   0.00    0.0
2023/05/31 01:33:30.000   3844059.6952    709661.5719   5023129.7521   6  15   0.0148   0.0268   0.0125  -0.0156  -0.0019   0.0093   0.00    0.0
2023/05/31 01:34:00.000   3844059.6945    709661.5713   5023129.7532   6  15   0.0147   0.0266   0.0125  -0.0155  -0.0019   0.0093   0.00    0.0
2023/05/31 01:34:30.000   3844059.6940    709661.5702   5023129.7542   6  15   0.0146   0.0264   0.0125  -0.0154  -0.0019   0.0093   0.00    0.0
2023/05/31 01:35:00.000   3844059.6934    709661.5697   5023129.7550   6  15   0.0145   0.0263   0.0124  -0.0153  -0.0019   0.0092   0.00    0.0
2023/05/31 01:35:30.000   3844059.6932    709661.5691   5023129.7559   6  15   0.0144   0.0261   0.0124  -0.0152  -0.0019   0.0092   0.00    0.0
2023/05/31 01:36:00.000   3844059.6925    709661.5692   5023129.7567   6  15   0.0143   0.0259   0.0124  -0.0150  -0.0020   0.0092   0.00    0.0
2023/05/31 01:36:30.000   3844059.6921    709661.5689   5023129.7576   6  15   0.0142   0.0258   0.0123  -0.0149  -0.0020   0.0092   0.00    0.0
2023/05/31 01:37:00.000   3844059.6917    709661.5684   5023129.7583   6  14   0.0142   0.0256   0.0123  -0.0148  -0.0019   0.0091   0.00    0.0
2023/05/31 01:37:30.000   3844059.6914    709661.5683   5023129.7591   6  14   0.0141   0.0255   0.0122  -0.0147  -0.0019   0.0091   0.00    0.0
2023/05/31 01:38:00.000   3844059.6912    709661.5677   5023129.7598   6  14   0.0140   0.0253   0.0122  -0.0146  -0.0019   0.0091   0.00    0.0
2023/05/31 01:38:30.000   3844059.6907    709661.5672   5023129.7603   6  14   0.0139   0.0252   0.0122  -0.0144  -0.0018   0.0091   0.00    0.0
2023/05/31 01:39:00.000   3844059.6901    709661.5672   5023129.7607   6  14   0.0138   0.0250   0.0122  -0.0143  -0.0018   0.0090   0.00    0.0
2023/05/31 01:39:30.000   3844059.6897    709661.5674   5023129.7615   6  14   0.0137   0.0249   0.0121  -0.0142  -0.0018   0.0090   0.00    0.0
2023/05/31 01:40:00.000   3844059.6895    709661.5675   5023129.7622   6  14   0.0137   0.0248   0.0121  -0.0141  -0.0018   0.0090   0.00    0.0
2023/05/31 01:40:30.000   3844059.6896    709661.5668   5023129.7627   6  14   0.0136   0.0246   0.0121  -0.0140  -0.0017   0.0090   0.00    0.0
2023/05/31 01:41:00.000   3844059.6895    709661.5664   5023129.7631   6  14   0.0135   0.0245   0.0120  -0.0139  -0.0017   0.0089   0.00    0.0
2023/05/31 01:41:30.000   3844059.6890    709661.5665   5023129.7634   6  14   0.0134   0.0243   0.0120  -0.0138  -0.0017   0.0089   0.00    0.0
2023/05/31 01:42:00.000   3844059.6886    709661.5668   5023129.7635   6  13   0.0134   0.0242   0.0120  -0.0137  -0.0016   0.0089   0.00    0.0
2023/05/31 01:42:30.000   3844059.6879    709661.5670   5023129.7637   6  14   0.0133   0.0241   0.0119  -0.0136  -0.0015   0.0089   0.00    0.0
2023/05/31 01:43:00.000   3844059.6876    709661.5676   5023129.7638   6  14   0.0132   0.0239   0.0119  -0.0135  -0.0015   0.0089   0.00    0.0
2023/05/31 01:43:30.000   3844059.6874    709661.5675   5023129.7641   6  14   0.0131   0.0238   0.0119  -0.0133  -0.0014   0.0088   0.00    0.0
2023/05/31 01:44:00.000   3844059.6875    709661.5674   5023129.7642   6  14   0.0131   0.0237   0.0119  -0.0132  -0.0013   0.0088   0.00    0.0
2023/05/31 01:44:30.000   3844059.6868    709661.5678   5023129.7644   6  14   0.0130   0.0236   0.0118  -0.0131  -0.0012   0.0088   0.00    0.0
2023/05/31 01:45:00.000   3844059.6864    709661.5674   5023129.7648   6  14   0.0129   0.0234   0.0118  -0.0130  -0.0011   0.0088   0.00    0.0
2023/05/31 01:45:30.000   3844059.6859    709661.5673   5023129.7651   6  14   0.0128   0.0233   0.0118  -0.0129  -0.0010   0.0088   0.00    0.0
2023/05/31 01:46:00.000   3844059.6855    709661.5677   5023129.7653   6  14   0.0128   0.0232   0.0118  -0.0128  -0.0009   0.0087   0.00    0.0
2023/05/31 01:46:30.000   3844059.6849    709661.5679   5023129.7653   6  14   0.0127   0.0231   0.0117  -0.0127  -0.0008   0.0087   0.00    0.0
2023/05/31 01:47:00.000   3844059.6845    709661.5678   5023129.7656   6  14   0.0126   0.0230   0.0117  -0.0126  -0.0006   0.0087   0.00    0.0
2023/05/31 01:47:30.000   3844059.6845    709661.5673   5023129.7660   6  14   0.0126   0.0228   0.0117  -0.0125  -0.0004   0.0087   0.00    0.0
2023/05/31 01:48:00.000   3844059.6846    709661.5670   5023129.7663   6  14   0.0125   0.0227   0.0116  -0.0124   0.0001   0.0087   0.00    0.0
2023/05/31 01:48:30.000   3844059.6844    709661.5667   5023129.7667   6  14   0.0125   0.0226   0.0116  -0.0124   0.0004   0.0086   0.00    0.0
2023/05/31 01:49:00.000   3844059.6842    709661.5671   5023129.7671   6  14   0.0124   0.0225   0.0116  -0.0123   0.0006   0.0086   0.00    0.0
2023/05/31 01:49:30.000   3844059.6845    709661.5667   5023129.7677   6  14   0.0123   0.0224   0.0116  -0.0122   0.0008   0.0086   0.00    0.0
2023/05/31 01:50:00.000   3844059.6843    709661.5665   5023129.7680   6  14   0.0123   0.0223   0.0115  -0.0121   0.0009   0.0086   0.00    0.0
2023/05/31 01:50:30.000   3844059.6840    709661.5668   5023129.7681   6  14   0.0122   0.0222   0.0115  -0.0120   0.0009   0.0086   0.00    0.0
2023/05/31 01:51:00.000   3844059.6838    709661.5668   5023129.7681   6  14   0.0121   0.0220   0.0115  -0.0119   0.0010   0.0085   0.00    0.0
2023/05/31 01:51:30.000   3844059.6839    709661.5667   5023129.7682   6  14   0.0121   0.0219   0.0115  -0.0118   0.0011   0.0085   0.00    0.0
2023/05/31 01:52:00.000   3844059.6837    709661.5666   5023129.7684   6  14   0.0120   0.0218   0.0114  -0.0117   0.0012   0.0085   0.00    0.0
2023/05/31 01:52:30.000   3844059.6835    709661.5662   5023129.7686   6  14   0.0120   0.0217   0.0114  -0.0116   0.0012   0.0085   0.00    0.0
2023/05/31 01:53:00.000   3844059.6833    709661.5664   5023129.7687   6  14   0.0119   0.0216   0.0114  -0.0115   0.0013   0.0085   0.00    0.0
2023/05/31 01:53:30.000   3844059.6827    709661.5672   5023129.7685   6  14   0.0119   0.0215   0.0114  -0.0114   0.0013   0.0084   0.00    0.0
2023/05/31 01:54:00.000   3844059.6820    709661.5679   5023129.7687   6  14   0.0118   0.0214   0.0113  -0.0114   0.0013   0.0084   0.00    0.0
2023/05/31 01:54:30.000   3844059.6814    709661.5684   5023129.7687   6  14   0.0117   0.0213   0.0113  -0.0113   0.0014   0.0084   0.00    0.0
2023/05/31 01:55:00.000   3844059.6806    709661.5697   5023129.7687   6  14   0.0117   0.0212   0.0113  -0.0112   0.0014   0.0084   0.00    0.0
2023/05/31 01:55:30.000   3844059.6798    709661.5711   5023129.7684   6  14   0.0116   0.0211   0.0112  -0.0111   0.0014   0.0084   0.00    0.0
2023/05/31 01:56:00.000   3844059.6791    709661.5718   5023129.7681   6  14   0.0116   0.0210   0.0112  -0.0110   0.0015   0.0084   0.00    0.0
2023/05/31 01:56:30.000   3844059.6776    709661.5757   5023129.7668   6  14   0.0115   0.0209   0.0112  -0.0109   0.0015   0.0083   0.00    0.0
2023/05/31 01:57:00.000   3844059.6759    709661.5791   5023129.7661   6  14   0.0115   0.0208   0.0112  -0.0109   0.0015   0.0083   0.00    0.0
2023/05/31 01:57:30.000   3844059.6743    709661.5822   5023129.7652   6  14   0.0114   0.0207   0.0111  -0.0108   0.0015   0.0083   0.00    0.0
2023/05/31 01:58:00.000   3844059.6729    709661.5851   5023129.7647   6  14   0.0114   0.0206   0.0111  -0.0107   0.0015   0.0083   0.00    0.0
2023/05/31 01:58:30.000   3844059.6719    709661.5879   5023129.7641   6  14   0.0113   0.0205   0.0111  -0.0106   0.0016   0.0083   0.00    0.0
2023/05/31 01:59:00.000   3844059.6708    709661.5907   5023129.7633   6  14   0.0113   0.0204   0.0111  -0.0105   0.0016   0.0082   0.00    0.0
2023/05/31 01:59:30.000   3844059.6697    709661.5937   5023129.7629   6  14   0.0112   0.0203   0.0110  -0.0105   0.0016   0.0082   0.00    0.0
2023/05/31 02:00:00.000   3844059.6684    709661.5965   5023129.7622   6  14   0.0112   0.0202   0.0110  -0.0104   0.0016   0.0082   0.00    0.0
2023/05/31 02:00:30.000   3844059.6678    709661.5982   5023129.7620   6  14   0.0111   0.0201   0.0110  -0.0103   0.0016   0.0082   0.00    0.0
2023/05/31 02:01:00.000   3844059.6673    709661.5999   5023129.7617   6  14   0.0111   0.0200   0.0109  -0.0102   0.0016   0.0082   0.00    0.0
2023/05/31 02:01:30.000   3844059.6667    709661.6014   5023129.7615   6  14   0.0110   0.0199   0.0109  -0.0102   0.0016   0.0082   0.00    0.0
2023/05/31 02:02:00.000   3844059.6663    709661.6027   5023129.7615   6  14   0.0110   0.0198   0.0109  -0.0101   0.0016   0.0081   0.00    0.0
2023/05/31 02:02:30.000   3844059.6655    709661.6043   5023129.7612   6  14   0.0110   0.0197   0.0109  -0.0100   0.0016   0.0081   0.00    0.0
2023/05/31 02:03:00.000   3844059.6652    709661.6055   5023129.7609   6  14   0.0109   0.0196   0.0108  -0.0100   0.0016   0.0081   0.00    0.0
2023/05/31 02:03:30.000   3844059.6647    709661.6071   5023129.7611   6  14   0.0109   0.0195   0.0108  -0.0099   0.0015   0.0081   0.00    0.0
2023/05/31 02:04:00.000   3844059.6641    709661.6082   5023129.7613   6  14   0.0108   0.0194   0.0108  -0.0098   0.0015   0.0081   0.00    0.0
2023/05/31 02:04:30.000   3844059.6634    709661.6102   5023129.7611   6  14   0.0108   0.0193   0.0107  -0.0098   0.0015   0.0080   0.00    0.0
2023/05/31 02:05:00.000   3844059.6628    709661.6115   5023129.7609   6  14   0.0107   0.0192   0.0107  -0.0097   0.0015   0.0080   0.00    0.0
2023/05/31 02:05:30.000   3844059.6621    709661.6133   5023129.7606   6  15   0.0107   0.0191   0.0107  -0.0096   0.0015   0.0080   0.00    0.0
2023/05/31 02:06:00.000   3844059.6611    709661.6152   5023129.7598   6  15   0.0107   0.0191   0.0106  -0.0096   0.0014   0.0080   0.00    0.0
2023/05/31 02:06:30.000   3844059.6601    709661.6169   5023129.7591   6  15   0.0106   0.0190   0.0106  -0.0095   0.0014   0.0080   0.00    0.0
2023/05/31 02:07:00.000   3844059.6594    709661.6185   5023129.7586   6  15   0.0106   0.0189   0.0106  -0.0094   0.0014   0.0080   0.00    0.0
2023/05/31 02:07:30.000   3844059.6589    709661.6199   5023129.7584   6  15   0.0105   0.0188   0.0106  -0.0094   0.0014   0.0079   0.00    0.0
2023/05/31 02:08:00.000   3844059.6584    709661.6211   5023129.7584   6  15   0.0105   0.0187   0.0105  -0.0093   0.0013   0.0079   0.00    0.0
2023/05/31 02:08:30.000   3844059.6579    709661.6221   5023129.7579   6  15   0.0105   0.0186   0.0105  -0.0092   0.0013   0.0079   0.00    0.0
2023/05/31 02:09:00.000   3844059.6575    709661.6231   5023129.7577   6  15   0.0104   0.0185   0.0105  -0.0092   0.0012   0.0079   0.00    0.0
2023/05/31 02:09:30.000   3844059.6570    709661.6247   5023129.7574   6  15   0.0104   0.0184   0.0104  -0.0091   0.0012   0.0079   0.00    0.0
2023/05/31 02:10:00.000   3844059.6566    709661.6259   5023129.7570   6  15   0.0103   0.0184   0.0104  -0.0091   0.0011   0.0078   0.00    0.0
2023/05/31 02:10:30.000   3844059.6561    709661.6269   5023129.7568   6  15   0.0103   0.0183   0.0104  -0.0090   0.0010   0.0078   0.00    0.0
2023/05/31 02:11:00.000   3844059.6557    709661.6277   5023129.7565   6  15   0.0103   0.0182   0.0103  -0.0090   0.0009   0.0078   0.00    0.0
2023/05/31 02:11:30.000   3844059.6553    709661.6285   5023129.7563   6  15   0.0102   0.0181   0.0103  -0.0089   0.0008   0.0078   0.00    0.0
2023/05/31 02:12:00.000   3844059.6549    709661.6295   5023129.7562   6  15   0.0102   0.0180   0.0103  -0.0088   0.0007   0.0077   0.00    0.0
2023/05/31 02:12:30.000   3844059.6544    709661.6302   5023129.7560   6  15   0.0102   0.0179   0.0102  -0.0088   0.0006   0.0077   0.00    0.0
2023/05/31 02:13:00.000   3844059.6541    709661.6311   5023129.7558   6  15   0.0101   0.0178   0.0102  -0.0087   0.0003   0.0077   0.00    0.0
2023/05/31 02:13:30.000   3844059.6539    709661.6314   5023129.7555   6  15   0.0101   0.0178   0.0101  -0.0087  -0.0003   0.0077   0.00    0.0
2023/05/31 02:14:00.000   3844059.6534    709661.6325   5023129.7554   6  15   0.0100   0.0177   0.0101  -0.0086  -0.0005   0.0077   0.00    0.0
2023/05/31 02:14:30.000   3844059.6531    709661.6329   5023129.7552   6  15   0.0100   0.0176   0.0101  -0.0086  -0.0007   0.0076   0.00    0.0
2023/05/31 02:15:00.000   3844059.6530    709661.6334   5023129.7549   6  15   0.0100   0.0175   0.0100  -0.0085  -0.0009   0.0076   0.00    0.0
2023/05/31 02:15:30.000   3844059.6526    709661.6342   5023129.7548   6  15   0.0099   0.0174   0.0100  -0.0085  -0.0010   0.0076   0.00    0.0
2023/05/31 02:16:00.000   3844059.6524    709661.6339   5023129.7545   6  15   0.0099   0.0174   0.0100  -0.0084  -0.0011   0.0076   0.00    0.0
2023/05/31 02:16:30.000   3844059.6522    709661.6344   5023129.7542   6  15   0.0099   0.0173   0.0099  -0.0084  -0.0012   0.0075   0.00    0.0
2023/05/31 02:17:00.000   3844059.6521    709661.6347   5023129.7539   6  15   0.0098   0.0172   0.0099  -0.0084  -0.0013   0.0075   0.00    0.0
2023/05/31 02:17:30.000   3844059.6521    709661.6352   5023129.7537   6  15   0.0098   0.0171   0.0098  -0.0083  -0.0014   0.0075   0.00    0.0
2023/05/31 02:18:00.000   3844059.6520    709661.6359   5023129.7536   6  15   0.0098   0.0170   0.0098  -0.0083  -0.0015   0.0075   0.00    0.0
2023/05/31 02:18:30.000   3844059.6520    709661.6363   5023129.7538   6  15   0.0097   0.0170   0.0098  -0.0082  -0.0015   0.0074   0.00    0.0
2023/05/31 02:19:00.000   3844059.6518    709661.6365   5023129.7536   6  15   0.0097   0.0169   0.0097  -0.0082  -0.0016   0.0074   0.00    0.0
2023/05/31 02:19:30.000   3844059.6516    709661.6373   5023129.7534   6  15   0.0097   0.0168   0.0097  -0.0081  -0.0017   0.0074   0.00    0.0
2023/05/31 02:20:00.000   3844059.6514    709661.6376   5023129.7532   6  15   0.0096   0.0167   0.0096  -0.0081  -0.0018   0.0074   0.00    0.0
2023/05/31 02:20:30.000   3844059.6514    709661.6378   5023129.7531   6  15   0.0096   0.0167   0.0096  -0.0080  -0.0018   0.0073   0.00    0.0
2023/05/31 02:21:00.000   3844059.6512    709661.6384   5023129.7529   6  14   0.0096   0.0166   0.0096  -0.0080  -0.0019   0.0073   0.00    0.0
2023/05/31 02:21:30.000   3844059.6511    709661.6389   5023129.7529   6  14   0.0095   0.0165   0.0095  -0.0080  -0.0019   0.0073   0.00    0.0
2023/05/31 02:22:00.000   3844059.6511    709661.6394   5023129.7530   6  14   0.0095   0.0164   0.0095  -0.0079  -0.0020   0.0073   0.00    0.0
2023/05/31 02:22:30.000   3844059.6510    709661.6398   5023129.7528   6  14   0.0095   0.0164   0.0095  -0.0079  -0.0020   0.0073   0.00    0.0
2023/05/31 02:23:00.000   3844059.6508    709661.6402   5023129.7529   6  14   0.0095   0.0163   0.0095  -0.0078  -0.0021   0.0073   0.00    0.0
2023/05/31 02:23:30.000   3844059.6508    709661.6406   5023129.7529   6  14   0.0094   0.0162   0.0094  -0.0078  -0.0021   0.0072   0.00    0.0
2023/05/31 02:24:00.000   3844059.6506    709661.6411   5023129.7529   6  14   0.0094   0.0161   0.0094  -0.0078  -0.0021   0.0072   0.00    0.0
2023/05/31 02:24:30.000   3844059.6509    709661.6411   5023129.7532   6  14   0.0094   0.0161   0.0094  -0.0077  -0.0022   0.0072   0.00    0.0
2023/05/31 02:25:00.000   3844059.6510    709661.6416   5023129.7532   6  14   0.0094   0.0160   0.0094  -0.0077  -0.0022   0.0072   0.00    0.0
2023/05/31 02:25:30.000   3844059.6511    709661.6421   5023129.7534   6  14   0.0093   0.0159   0.0093  -0.0076  -0.0023   0.0072   0.00    0.0
2023/05/31 02:26:00.000   3844059.6512    709661.6427   5023129.7535   6  14   0.0093   0.0159   0.0093  -0.0076  -0.0023   0.0072   0.00    0.0
2023/05/31 02:26:30.000   3844059.6513    709661.6431   5023129.7538   6  14   0.0093   0.0158   0.0093  -0.0076  -0.0023   0.0072   0.00    0.0
2023/05/31 02:27:00.000   3844059.6515    709661.6437   5023129.7540   6  14   0.0093   0.0157   0.0092  -0.0075  -0.0024   0.0071   0.00    0.0
2023/05/31 02:27:30.000   3844059.6514    709661.6443   5023129.7541   6  14   0.0092   0.0157   0.0092  -0.0075  -0.0024   0.0071   0.00    0.0
2023/05/31 02:28:00.000   3844059.6514    709661.6445   5023129.7538   6  14   0.0092   0.0156   0.0092  -0.0074  -0.0024   0.0071   0.00    0.0
2023/05/31 02:28:30.000   3844059.6514    709661.6446   5023129.7540   6  14   0.0092   0.0155   0.0092  -0.0074  -0.0025   0.0071   0.00    0.0
2023/05/31 02:29:00.000   3844059.6509    709661.6442   5023129.7535   6  14   0.0092   0.0155   0.0091  -0.0074  -0.0025   0.0071   0.00    0.0
2023/05/31 02:29:30.000   3844059.6507    709661.6443   5023129.7534   6  16   0.0091   0.0154   0.0091  -0.0073  -0.0025   0.0071   0.00    0.0
2023/05/31 02:30:00.000   3844059.6506    709661.6442   5023129.7533   6  17   0.0091   0.0153   0.0091  -0.0073  -0.0026   0.0071   0.00    0.0
2023/05/31 02:30:30.000   3844059.6503    709661.6443   5023129.7532   6  17   0.0091   0.0153   0.0091  -0.0073  -0.0026   0.0071   0.00    0.0
2023/05/31 02:31:00.000   3844059.6501    709661.6448   5023129.7530   6  17   0.0091   0.0152   0.0090  -0.0072  -0.0026   0.0070   0.00    0.0
2023/05/31 02:31:30.000   3844059.6499    709661.6450   5023129.7529   6  17   0.0091   0.0151   0.0090  -0.0072  -0.0026   0.0070   0.00    0.0
2023/05/31 02:32:00.000   3844059.6495    709661.6453   5023129.7528   6  17   0.0090   0.0151   0.0090  -0.0072  -0.0027   0.0070   0.00    0.0
2023/05/31 02:32:30.000   3844059.6492    709661.6451   5023129.7524   6  17   0.0090   0.0150   0.0090  -0.0071  -0.0027   0.0070   0.00    0.0
2023/05/31 02:33:00.000   3844059.6488    709661.6451   5023129.7520   6  17   0.0090   0.0149   0.0089  -0.0071  -0.0027   0.0070   0.00    0.0
2023/05/31 02:33:30.000   3844059.6485    709661.6449   5023129.7516   6  18   0.0090   0.0149   0.0089  -0.0071  -0.0028   0.0070   0.00    0.0
2023/05/31 02:34:00.000   3844059.6484    709661.6447   5023129.7513   6  18   0.0090   0.0148   0.0089  -0.0070  -0.0028   0.0070   0.00    0.0
2023/05/31 02:34:30.000   3844059.6482    709661.6444   5023129.7510   6  18   0.0089   0.0147   0.0089  -0.0070  -0.0028   0.0069   0.00    0.0
2023/05/31 02:35:00.000   3844059.6480    709661.6440   5023129.7505   6  17   0.0089   0.0147   0.0088  -0.0070  -0.0028   0.0069   0.00    0.0
2023/05/31 02:35:30.000   3844059.6477    709661.6438   5023129.7499   6  17   0.0089   0.0146   0.0088  -0.0069  -0.0029   0.0069   0.00    0.0
2023/05/31 02:36:00.000   3844059.6475    709661.6437   5023129.7494   6  17   0.0089   0.0146   0.0088  -0.0069  -0.0029   0.0069   0.00    0.0
2023/05/31 02:36:30.000   3844059.6472    709661.6439   5023129.7489   6  17   0.0089   0.0145   0.0088  -0.0069  -0.0029   0.0069   0.00    0.0
2023/05/31 02:37:00.000   3844059.6470    709661.6435   5023129.7489   6  17   0.0088   0.0144   0.0087  -0.0068  -0.0029   0.0069   0.00    0.0
2023/05/31 02:37:30.000   3844059.6471    709661.6430   5023129.7488   6  17   0.0088   0.0144   0.0087  -0.0068  -0.0030   0.0069   0.00    0.0
2023/05/31 02:38:00.000   3844059.6470    709661.6431   5023129.7486   6  17   0.0088   0.0143   0.0087  -0.0068  -0.0030   0.0068   0.00    0.0
2023/05/31 02:38:30.000   3844059.6468    709661.6437   5023129.7484   6  17   0.0088   0.0143   0.0087  -0.0068  -0.0030   0.0068   0.00    0.0
2023/05/31 02:39:00.000   3844059.6468    709661.6439   5023129.7483   6  17   0.0088   0.0142   0.0086  -0.0067  -0.0030   0.0068   0.00    0.0
2023/05/31 02:39:30.000   3844059.6468    709661.6433   5023129.7483   6  17   0.0087   0.0141   0.0086  -0.0067  -0.0031   0.0068   0.00    0.0
2023/05/31 02:40:00.000   3844059.6468    709661.6425   5023129.7482   6  17   0.0087   0.0141   0.0086  -0.0067  -0.0031   0.0068   0.00    0.0
2023/05/31 02:40:30.000   3844059.6468    709661.6423   5023129.7482   6  17   0.0087   0.0140   0.0086  -0.0067  -0.0031   0.0068   0.00    0.0
2023/05/31 02:41:00.000   3844059.6468    709661.6418   5023129.7479   6  17   0.0087   0.0140   0.0085  -0.0066  -0.0031   0.0068   0.00    0.0
2023/05/31 02:41:30.000   3844059.6467    709661.6413   5023129.7475   6  17   0.0087   0.0139   0.0085  -0.0066  -0.0032   0.0068   0.00    0.0
2023/05/31 02:42:00.000   3844059.6467    709661.6410   5023129.7470   6  17   0.0087   0.0139   0.0085  -0.0066  -0.0032   0.0067   0.00    0.0
2023/05/31 02:42:30.000   3844059.6468    709661.6408   5023129.7468   6  17   0.0086   0.0138   0.0085  -0.0066  -0.0032   0.0067   0.00    0.0
2023/05/31 02:43:00.000   3844059.6470    709661.6405   5023129.7469   6  17   0.0086   0.0137   0.0084  -0.0065  -0.0032   0.0067   0.00    0.0
2023/05/31 02:43:30.000   3844059.6474    709661.6400   5023129.7470   6  17   0.0086   0.0137   0.0084  -0.0065  -0.0032   0.0067   0.00    0.0
2023/05/31 02:44:00.000   3844059.6477    709661.6394   5023129.7472   6  18   0.0086   0.0136   0.0084  -0.0065  -0.0033   0.0067   0.00    0.0
2023/05/31 02:44:30.000   3844059.6482    709661.6383   5023129.7476   6  18   0.0086   0.0136   0.0084  -0.0065  -0.0033   0.0067   0.00    0.0
2023/05/31 02:45:00.000   3844059.6485    709661.6377   5023129.7475   6  18   0.0086   0.0135   0.0084  -0.0064  -0.0033   0.0067   0.00    0.0
2023/05/31 02:45:30.000   3844059.6488    709661.6371   5023129.7474   6  17   0.0085   0.0135   0.0083  -0.0064  -0.0033   0.0067   0.00    0.0
2023/05/31 02:46:00.000   3844059.6492    709661.6362   5023129.7472   6  17   0.0085   0.0134   0.0083  -0.0064  -0.0033   0.0066   0.00    0.0
2023/05/31 02:46:30.000   3844059.6496    709661.6356   5023129.7471   6  17   0.0085   0.0134   0.0083  -0.0064  -0.0034   0.0066   0.00    0.0
2023/05/31 02:47:00.000   3844059.6501    709661.6348   5023129.7472   6  17   0.0085   0.0133   0.0083  -0.0064  -0.0034   0.0066   0.00    0.0
2023/05/31 02:47:30.000   3844059.6505    709661.6340   5023129.7470   6  17   0.0085   0.0133   0.0083  -0.0063  -0.0034   0.0066   0.00    0.0
2023/05/31 02:48:00.000   3844059.6509    709661.6336   5023129.7471   6  17   0.0085   0.0132   0.0082  -0.0063  -0.0034   0.0066   0.00    0.0
2023/05/31 02:48:30.000   3844059.6513    709661.6332   5023129.7472   6  17   0.0084   0.0132   0.0082  -0.0063  -0.0034   0.0066   0.00    0.0
2023/05/31 02:49:00.000   3844059.6516    709661.6326   5023129.7472   6  17   0.0084   0.0131   0.0082  -0.0063  -0.0034   0.0066   0.00    0.0
2023/05/31 02:49:30.000   3844059.6518    709661.6321   5023129.7470   6  17   0.0084   0.0131   0.0082  -0.0063  -0.0035   0.0066   0.00    0.0
2023/05/31 02:50:00.000   3844059.6521    709661.6315   5023129.7468   6  17   0.0084   0.0130   0.0081  -0.0062  -0.0035   0.0065   0.00    0.0
2023/05/31 02:50:30.000   3844059.6525    709661.6311   5023129.7469   6  17   0.0084   0.0130   0.0081  -0.0062  -0.0035   0.0065   0.00    0.0
2023/05/31 02:51:00.000   3844059.6528    709661.6309   5023129.7467   6  17   0.0084   0.0129   0.0081  -0.0062  -0.0035   0.0065   0.00    0.0
2023/05/31 02:51:30.000   3844059.6529    709661.6309   5023129.7469   6  17   0.0083   0.0129   0.0081  -0.0062  -0.0035   0.0065   0.00    0.0
2023/05/31 02:52:00.000   3844059.6532    709661.6310   5023129.7470   6  17   0.0083   0.0128   0.0081  -0.0062  -0.0035   0.0065   0.00    0.0
2023/05/31 02:52:30.000   3844059.6535    709661.6306   5023129.7472   6  17   0.0083   0.0128   0.0080  -0.0061  -0.0035   0.0065   0.00    0.0
2023/05/31 02:53:00.000   3844059.6536    709661.6306   5023129.7473   6  17   0.0083   0.0127   0.0080  -0.0061  -0.0035   0.0065   0.00    0.0
2023/05/31 02:53:30.000   3844059.6536    709661.6307   5023129.7472   6  16   0.0083   0.0127   0.0080  -0.0061  -0.0035   0.0065   0.00    0.0
2023/05/31 02:54:00.000   3844059.6536    709661.6309   5023129.7474   6  16   0.0083   0.0126   0.0080  -0.0061  -0.0035   0.0065   0.00    0.0
2023/05/31 02:54:30.000   3844059.6537    709661.6311   5023129.7474   6  16   0.0083   0.0126   0.0080  -0.0061  -0.0035   0.0064   0.00    0.0
2023/05/31 02:55:00.000   3844059.6538    709661.6313   5023129.7475   6  16   0.0083   0.0125   0.0080  -0.0060  -0.0035   0.0064   0.00    0.0
2023/05/31 02:55:30.000   3844059.6541    709661.6314   5023129.7476   6  16   0.0082   0.0125   0.0080  -0.0060  -0.0035   0.0064   0.00    0.0
2023/05/31 02:56:00.000   3844059.6543    709661.6311   5023129.7479   6  16   0.0082   0.0125   0.0079  -0.0060  -0.0035   0.0064   0.00    0.0
2023/05/31 02:56:30.000   3844059.6545    709661.6310   5023129.7481   6  16   0.0082   0.0124   0.0079  -0.0060  -0.0035   0.0064   0.00    0.0
2023/05/31 02:57:00.000   3844059.6549    709661.6308   5023129.7482   6  16   0.0082   0.0124   0.0079  -0.0060  -0.0035   0.0064   0.00    0.0
2023/05/31 02:57:30.000   3844059.6550    709661.6306   5023129.7483   6  16   0.0082   0.0123   0.0079  -0.0059  -0.0035   0.0064   0.00    0.0
2023/05/31 02:58:00.000   3844059.6550    709661.6305   5023129.7481   6  16   0.0082   0.0123   0.0079  -0.0059  -0.0035   0.0064   0.00    0.0
2023/05/31 02:58:30.000   3844059.6552    709661.6302   5023129.7482   6  15   0.0082   0.0123   0.0079  -0.0059  -0.0035   0.0064   0.00    0.0
2023/05/31 02:59:00.000   3844059.6558    709661.6292   5023129.7485   6  14   0.0082   0.0122   0.0079  -0.0059  -0.0035   0.0064   0.00    0.0
2023/05/31 02:59:30.000   3844059.6574    709661.6271   5023129.7494   6  15   0.0081   0.0122   0.0079  -0.0059  -0.0035   0.0064   0.00    0.0
2023/05/31 03:00:00.000   3844059.6590    709661.6254   5023129.7502   6  14   0.0081   0.0122   0.0078  -0.0058  -0.0035   0.0064   0.00    0.0
2023/05/31 03:00:30.000   3844059.6605    709661.6234   5023129.7512   6  15   0.0081   0.0121   0.0078  -0.0058  -0.0035   0.0064   0.00    0.0
2023/05/31 03:01:00.000   3844059.6618    709661.6217   5023129.7519   6  14   0.0081   0.0121   0.0078  -0.0058  -0.0035   0.0063   0.00    0.0
2023/05/31 03:01:30.000   3844059.6630    709661.6201   5023129.7526   6  14   0.0081   0.0121   0.0078  -0.0058  -0.0035   0.0063   0.00    0.0
2023/05/31 03:02:00.000   3844059.6642    709661.6182   5023129.7534   6  14   0.0081   0.0120   0.0078  -0.0057  -0.0034   0.0063   0.00    0.0
2023/05/31 03:02:30.000   3844059.6654    709661.6166   5023129.7543   6  14   0.0081   0.0120   0.0078  -0.0057  -0.0034   0.0063   0.00    0.0
2023/05/31 03:03:00.000   3844059.6665    709661.6152   5023129.7549   6  14   0.0081   0.0119   0.0078  -0.0057  -0.0034   0.0063   0.00    0.0
2023/05/31 03:03:30.000   3844059.6678    709661.6132   5023129.7557   6  14   0.0081   0.0119   0.0078  -0.0057  -0.0034   0.0063   0.00    0.0
2023/05/31 03:04:00.000   3844059.6689    709661.6114   5023129.7564   6  14   0.0080   0.0119   0.0078  -0.0057  -0.0034   0.0063   0.00    0.0
2023/05/31 03:04:30.000   3844059.6698    709661.6100   5023129.7570   6  14   0.0080   0.0118   0.0077  -0.0056  -0.0034   0.0063   0.00    0.0
2023/05/31 03:05:00.000   3844059.6708    709661.6082   5023129.7576   6  14   0.0080   0.0118   0.0077  -0.0056  -0.0034   0.0063   0.00    0.0
2023/05/31 03:05:30.000   3844059.6715    709661.6072   5023129.7579   6  14   0.0080   0.0118   0.0077  -0.0056  -0.0034   0.0063   0.00    0.0
2023/05/31 03:06:00.000   3844059.6723    709661.6060   5023129.7583   6  14   0.0080   0.0117   0.0077  -0.0056  -0.0034   0.0063   0.00    0.0
2023/05/31 03:06:30.000   3844059.6730    709661.6048   5023129.7588   6  14   0.0080   0.0117   0.0077  -0.0056  -0.0033   0.0063   0.00    0.0
2023/05/31 03:07:00.000   3844059.6737    709661.6036   5023129.7593   6  14   0.0080   0.0117   0.0077  -0.0056  -0.0033   0.0063   0.00    0.0
2023/05/31 03:07:30.000   3844059.6742    709661.6026   5023129.7595   6  14   0.0080   0.0117   0.0077  -0.0055  -0.0033   0.0063   0.00    0.0
2023/05/31 03:08:00.000   3844059.6748    709661.6018   5023129.7597   6  14   0.0080   0.0116   0.0077  -0.0055  -0.0033   0.0062   0.00    0.0
2023/05/31 03:08:30.000   3844059.6754    709661.6014   5023129.7601   6  14   0.0079   0.0116   0.0077  -0.0055  -0.0033   0.0062   0.00    0.0
2023/05/31 03:09:00.000   3844059.6759    709661.6007   5023129.7603   6  14   0.0079   0.0116   0.0077  -0.0055  -0.0033   0.0062   0.00    0.0
2023/05/31 03:09:30.000   3844059.6764    709661.6002   5023129.7608   6  15   0.0079   0.0115   0.0076  -0.0055  -0.0033   0.0062   0.00    0.0
2023/05/31 03:10:00.000   3844059.6768    709661.5994   5023129.7610   6  15   0.0079   0.0115   0.0076  -0.0054  -0.0033   0.0062   0.00    0.0
2023/05/31 03:10:30.000   3844059.6773    709661.5984   5023129.7615   6  15   0.0079   0.0115   0.0076  -0.0054  -0.0032   0.0062   0.00    0.0
2023/05/31 03:11:00.000   3844059.6777    709661.5974   5023129.7617   6  15   0.0079   0.0114   0.0076  -0.0054  -0.0032   0.0062   0.00    0.0
2023/05/31 03:11:30.000   3844059.6779    709661.5968   5023129.7619   6  15   0.0079   0.0114   0.0076  -0.0054  -0.0032   0.0062   0.00    0.0
2023/05/31 03:12:00.000   3844059.6779    709661.5963   5023129.7616   6  15   0.0079   0.0114   0.0076  -0.0054  -0.0032   0.0062   0.00    0.0
2023/05/31 03:12:30.000   3844059.6782    709661.5957   5023129.7619   6  15   0.0079   0.0114   0.0076  -0.0054  -0.0032   0.0062   0.00    0.0
2023/05/31 03:13:00.000   3844059.6785    709661.5953   5023129.7620   6  15   0.0078   0.0113   0.0076  -0.0053  -0.0032   0.0062   0.00    0.0
2023/05/31 03:13:30.000   3844059.6789    709661.5947   5023129.7623   6  16   0.0078   0.0113   0.0076  -0.0053  -0.0032   0.0062   0.00    0.0
2023/05/31 03:14:00.000   3844059.6793    709661.5940   5023129.7627   6  16   0.0078   0.0113   0.0076  -0.0053  -0.0032   0.0062   0.00    0.0
2023/05/31 03:14:30.000   3844059.6795    709661.5934   5023129.7629   6  16   0.0078   0.0112   0.0075  -0.0053  -0.0031   0.0061   0.00    0.0
2023/05/31 03:15:00.000   3844059.6798    709661.5932   5023129.7630   6  16   0.0078   0.0112   0.0075  -0.0053  -0.0031   0.0061   0.00    0.0
2023/05/31 03:15:30.000   3844059.6800    709661.5928   5023129.7632   6  16   0.0078   0.0112   0.0075  -0.0052  -0.0031   0.0061   0.00    0.0
2023/05/31 03:16:00.000   3844059.6802    709661.5925   5023129.7632   6  16   0.0078   0.0112   0.0075  -0.0052  -0.0031   0.0061   0.00    0.0
2023/05/31 03:16:30.000   3844059.6804    709661.5923   5023129.7635   6  16   0.0078   0.0111   0.0075  -0.0052  -0.0031   0.0061   0.00    0.0
2023/05/31 03:17:00.000   3844059.6806    709661.5920   5023129.7635   6  16   0.0078   0.0111   0.0075  -0.0052  -0.0031   0.0061   0.00    0.0
2023/05/31 03:17:30.000   3844059.6809    709661.5916   5023129.7638   6  16   0.0077   0.0111   0.0075  -0.0052  -0.0031   0.0061   0.00    0.0
2023/05/31 03:18:00.000   3844059.6808    709661.5915   5023129.7638   6  16   0.0077   0.0110   0.0075  -0.0052  -0.0030   0.0061   0.00    0.0
2023/05/31 03:18:30.000   3844059.6809    709661.5916   5023129.7639   6  16   0.0077   0.0110   0.0075  -0.0051  -0.0030   0.0061   0.00    0.0
2023/05/31 03:19:00.000   3844059.6811    709661.5917   5023129.7641   6  16   0.0077   0.0110   0.0075  -0.0051  -0.0030   0.0061   0.00    0.0
2023/05/31 03:19:30.000   3844059.6811    709661.5915   5023129.7641   6  16   0.0077   0.0110   0.0075  -0.0051  -0.0030   0.0061   0.00    0.0
2023/05/31 03:20:00.000   3844059.6810    709661.5917   5023129.7640   6  16   0.0077   0.0109   0.0074  -0.0051  -0.0030   0.0061   0.00    0.0
2023/05/31 03:20:30.000   3844059.6809    709661.5914   5023129.7640   6  16   0.0077   0.0109   0.0074  -0.0051  -0.0030   0.0061   0.00    0.0
2023/05/31 03:21:00.000   3844059.6810    709661.5912   5023129.7639   6  16   0.0077   0.0109   0.0074  -0.0051  -0.0030   0.0060   0.00    0.0
2023/05/31 03:21:30.000   3844059.6809    709661.5910   5023129.7638   6  16   0.0077   0.0109   0.0074  -0.0050  -0.0029   0.0060   0.00    0.0
2023/05/31 03:22:00.000   3844059.6809    709661.5909   5023129.7638   6  16   0.0076   0.0108   0.0074  -0.0050  -0.0029   0.0060   0.00    0.0
2023/05/31 03:22:30.000   3844059.6808    709661.5910   5023129.7637   6  16   0.0076   0.0108   0.0074  -0.0050  -0.0029   0.0060   0.00    0.0
2023/05/31 03:23:00.000   3844059.6807    709661.5910   5023129.7637   6  16   0.0076   0.0108   0.0074  -0.0050  -0.0029   0.0060   0.00    0.0
2023/05/31 03:23:30.000   3844059.6806    709661.5913   5023129.7638   6  16   0.0076   0.0107   0.0074  -0.0050  -0.0029   0.0060   0.00    0.0
