% program   : RTKLIB ver.2.4.3
% inp file  : /media/david/Passport/HASPPP/ppp_example/Linux/HAS_PPP_OS/obs/*.23o
% inp file  : /media/david/Passport/HASPPP/ppp_example/Linux/HAS_PPP_OS/obs/*.23p
% inp file  : /media/david/Passport/HASPPP/ppp_example/Linux/HAS_PPP_OS/obs/*.HAS
% obs start : 2023/06/15 00:00:00.0 GPST (week2266 345600.0s)
% obs end   : 2023/06/16 23:59:30.0 GPST (week2266 518370.0s)
% pos mode  : PPP Static
% solution  : Forward
% elev mask : 5.0 deg
% dynamics  : off
% tidecorr  : on
% tropo opt : Estimate ZTD
% ephemeris : Broadcast+SSR APC
% navi sys  : Galileo
% antenna1  : LEIAR25.R4      LEIT  ( 0.0000  0.0000  0.0590)
%
% (x/y/z-ecef=WGS84,Q=1:fix,2:float,3:sbas,4:dgps,5:single,6:ppp,ns=# of satellites)
%  GPST                      x-ecef(m)      y-ecef(m)      z-ecef(m)   Q  ns   sdx(m)   sdy(m)   sdz(m)  sdxy(m)  sdyz(m)  sdzx(m) age(s)  ratio
2023/06/15 00:00:00.000   3844058.7552    709661.5751   5023128.2593   6   5   8.1388   5.4955  23.8281  -2.4577  -3.9926  11.7977   0.00    0.0
2023/06/15 00:00:30.000   3844060.0692    709661.7971   5023133.1781   6   5   5.0260   3.8623  11.7317  -1.3868  -1.4880   6.1054   0.00    0.0
2023/06/15 00:01:00.000   3844059.9551    709661.7962   5023132.1057   6   5   3.6902   3.1348   6.9564  -1.0594   0.2209   3.8362   0.00    0.0
2023/06/15 00:01:30.000   3844059.8076    709661.6722   5023130.6320   6   5   2.9300   2.6988   4.6904  -0.9477   0.6835   2.7317   0.00    0.0
2023/06/15 00:02:00.000   3844059.8947    709661.6339   5023130.0986   6   5   2.4198   2.3989   3.4324  -0.8975   0.7131   2.0928   0.00    0.0
2023/06/15 00:02:30.000   3844059.8372    709661.6239   5023129.7819   6   5   2.0474   2.1757   2.6535  -0.8645   0.6819   1.6775   0.00    0.0
2023/06/15 00:03:00.000   3844059.7732    709661.7371   5023130.1374   6   5   1.7627   2.0007   2.1327  -0.8355   0.6383   1.3861   0.00    0.0
2023/06/15 00:03:30.000   3844059.8780    709661.7714   5023130.3739   6   5   1.5390   1.8584   1.7645  -0.8072   0.5951   1.1711   0.00    0.0
2023/06/15 00:04:00.000   3844059.8348    709661.7643   5023130.1014   6   5   1.3595   1.7395   1.4931  -0.7789   0.5559   1.0065   0.00    0.0
2023/06/15 00:04:30.000   3844059.7735    709661.7658   5023130.0024   6   5   1.2132   1.6381   1.2863  -0.7506   0.5214   0.8773   0.00    0.0
2023/06/15 00:05:00.000   3844059.7695    709661.7947   5023129.9867   6   5   1.0924   1.5500   1.1247  -0.7227   0.4915   0.7737   0.00    0.0
2023/06/15 00:05:30.000   3844059.8263    709661.7907   5023129.9684   6   5   0.9913   1.4726   0.9957  -0.6955   0.4656   0.6893   0.00    0.0
2023/06/15 00:06:00.000   3844059.8274    709661.7895   5023129.9815   6   5   0.9059   1.4038   0.8910  -0.6690   0.4433   0.6195   0.00    0.0
2023/06/15 00:06:30.000   3844059.8436    709661.7298   5023129.9308   6   5   0.8329   1.3421   0.8047  -0.6434   0.4241   0.5612   0.00    0.0
2023/06/15 00:07:00.000   3844059.8235    709661.7074   5023129.9430   6   5   0.7699   1.2864   0.7327  -0.6187   0.4076   0.5120   0.00    0.0
2023/06/15 00:07:30.000   3844059.7975    709661.7046   5023129.9425   6   5   0.7150   1.2358   0.6719  -0.5951   0.3934   0.4699   0.00    0.0
2023/06/15 00:08:00.000   3844059.8141    709661.6847   5023129.8503   6   5   0.6669   1.1898   0.6202  -0.5724   0.3811   0.4337   0.00    0.0
2023/06/15 00:08:30.000   3844059.8239    709661.6657   5023129.8294   6   5   0.6244   1.1477   0.5757  -0.5507   0.3706   0.4023   0.00    0.0
2023/06/15 00:09:00.000   3844059.7774    709661.6209   5023129.8825   6   5   0.5865   1.1090   0.5373  -0.5300   0.3615   0.3749   0.00    0.0
2023/06/15 00:09:30.000   3844059.7600    709661.6164   5023129.8709   6   5   0.5525   1.0736   0.5037  -0.5103   0.3537   0.3506   0.00    0.0
2023/06/15 00:10:00.000   3844059.7578    709661.6251   5023129.8851   6   5   0.5219   1.0409   0.4743  -0.4915   0.3470   0.3291   0.00    0.0
2023/06/15 00:10:30.000   3844059.7497    709661.6201   5023129.8508   6   5   0.4941   1.0109   0.4482  -0.4736   0.3412   0.3098   0.00    0.0
2023/06/15 00:11:00.000   3844059.7220    709661.6213   5023129.8796   6   5   0.4688   0.9832   0.4251  -0.4567   0.3362   0.2925   0.00    0.0
2023/06/15 00:11:30.000   3844059.7159    709661.6347   5023129.8415   6   5   0.4457   0.9577   0.4045  -0.4406   0.3318   0.2768   0.00    0.0
2023/06/15 00:12:00.000   3844059.6951    709661.6390   5023129.8397   6   5   0.4244   0.9341   0.3859  -0.4254   0.3280   0.2624   0.00    0.0
2023/06/15 00:12:30.000   3844059.6723    709661.6375   5023129.8266   6   5   0.4047   0.9124   0.3691  -0.4110   0.3246   0.2492   0.00    0.0
2023/06/15 00:13:00.000   3844059.6382    709661.6843   5023129.8348   6   5   0.3865   0.8923   0.3538  -0.3974   0.3216   0.2370   0.00    0.0
2023/06/15 00:13:30.000   3844059.6062    709661.7029   5023129.8206   6   5   0.3696   0.8738   0.3399  -0.3847   0.3188   0.2256   0.00    0.0
2023/06/15 00:14:00.000   3844059.5924    709661.7033   5023129.7947   6   5   0.3539   0.8567   0.3271  -0.3727   0.3163   0.2150   0.00    0.0
2023/06/15 00:14:30.000   3844059.5865    709661.7141   5023129.7887   6   5   0.3392   0.8409   0.3153  -0.3614   0.3139   0.2051   0.00    0.0
2023/06/15 00:15:00.000   3844059.5894    709661.7178   5023129.7764   6   5   0.3255   0.8263   0.3044  -0.3509   0.3116   0.1957   0.00    0.0
2023/06/15 00:15:30.000   3844059.5962    709661.6980   5023129.7654   6   5   0.3127   0.8128   0.2942  -0.3411   0.3094   0.1869   0.00    0.0
2023/06/15 00:16:00.000   3844059.5992    709661.6877   5023129.7612   6   5   0.3007   0.8002   0.2847  -0.3319   0.3072   0.1785   0.00    0.0
2023/06/15 00:16:30.000   3844059.6003    709661.6823   5023129.7557   6   5   0.2894   0.7885   0.2757  -0.3234   0.3050   0.1705   0.00    0.0
2023/06/15 00:17:00.000   3844059.6061    709661.6702   5023129.7425   6   5   0.2788   0.7776   0.2673  -0.3154   0.3028   0.1629   0.00    0.0
2023/06/15 00:17:30.000   3844059.6125    709661.6628   5023129.7438   6   5   0.2688   0.7674   0.2593  -0.3081   0.3005   0.1556   0.00    0.0
2023/06/15 00:18:00.000   3844059.6148    709661.6653   5023129.7456   6   5   0.2594   0.7578   0.2518  -0.3013   0.2982   0.1486   0.00    0.0
2023/06/15 00:18:30.000   3844059.6207    709661.6659   5023129.7459   6   5   0.2505   0.7488   0.2446  -0.2949   0.2958   0.1419   0.00    0.0
2023/06/15 00:19:00.000   3844059.6187    709661.6753   5023129.7739   6   5   0.2421   0.7404   0.2377  -0.2891   0.2933   0.1355   0.00    0.0
2023/06/15 00:19:30.000   3844059.6297    709661.6767   5023129.7865   6   5   0.2342   0.7323   0.2311  -0.2837   0.2908   0.1293   0.00    0.0
2023/06/15 00:20:00.000   3844059.6399    709661.6626   5023129.7897   6   5   0.2268   0.7247   0.2248  -0.2787   0.2881   0.1233   0.00    0.0
2023/06/15 00:20:30.000   3844059.6392    709661.6669   5023129.7985   6   5   0.2198   0.7174   0.2188  -0.2741   0.2854   0.1175   0.00    0.0
2023/06/15 00:21:00.000   3844059.6460    709661.6589   5023129.7932   6   5   0.2131   0.7104   0.2129  -0.2698   0.2826   0.1120   0.00    0.0
2023/06/15 00:21:30.000   3844059.6521    709661.6655   5023129.8030   6   5   0.2068   0.7036   0.2073  -0.2659   0.2796   0.1066   0.00    0.0
2023/06/15 00:22:00.000   3844059.6510    709661.6652   5023129.8012   6   5   0.2009   0.6971   0.2019  -0.2622   0.2766   0.1015   0.00    0.0
2023/06/15 00:22:30.000   3844059.6542    709661.6643   5023129.7935   6   5   0.1953   0.6907   0.1966  -0.2588   0.2735   0.0965   0.00    0.0
2023/06/15 00:23:00.000   3844059.6574    709661.6583   5023129.7956   6   5   0.1900   0.6845   0.1915  -0.2557   0.2704   0.0917   0.00    0.0
2023/06/15 00:23:30.000   3844059.6623    709661.6342   5023129.7973   6   5   0.1849   0.6785   0.1866  -0.2527   0.2671   0.0870   0.00    0.0
2023/06/15 00:24:00.000   3844059.6622    709661.6390   5023129.8129   6   5   0.1801   0.6725   0.1818  -0.2499   0.2638   0.0825   0.00    0.0
2023/06/15 00:24:30.000   3844059.6609    709661.6411   5023129.8185   6   5   0.1756   0.6666   0.1771  -0.2473   0.2603   0.0782   0.00    0.0
2023/06/15 00:25:00.000   3844059.6632    709661.6258   5023129.8117   6   5   0.1713   0.6608   0.1726  -0.2449   0.2569   0.0740   0.00    0.0
2023/06/15 00:25:30.000   3844059.6617    709661.6236   5023129.8074   6   5   0.1684   0.6552   0.1695  -0.2422   0.2537   0.0728   0.00    0.0
2023/06/15 00:26:00.000   3844059.6568    709661.6238   5023129.8111   6   6   0.1656   0.6494   0.1665  -0.2394   0.2506   0.0718   0.00    0.0
2023/06/15 00:26:30.000   3844059.6510    709661.6302   5023129.8110   6   6   0.1629   0.6438   0.1636  -0.2367   0.2474   0.0710   0.00    0.0
2023/06/15 00:27:00.000   3844059.6474    709661.6389   5023129.8144   6   6   0.1603   0.6380   0.1608  -0.2340   0.2442   0.0702   0.00    0.0
2023/06/15 00:27:30.000   3844059.6429    709661.6500   5023129.8151   6   6   0.1579   0.6321   0.1581  -0.2314   0.2409   0.0696   0.00    0.0
2023/06/15 00:28:00.000   3844059.6344    709661.6416   5023129.8023   6   6   0.1555   0.6261   0.1554  -0.2287   0.2375   0.0691   0.00    0.0
2023/06/15 00:28:30.000   3844059.6304    709661.6298   5023129.7914   6   6   0.1532   0.6198   0.1527  -0.2261   0.2339   0.0686   0.00    0.0
2023/06/15 00:29:00.000   3844059.6265    709661.6169   5023129.7787   6   6   0.1510   0.6133   0.1500  -0.2236   0.2301   0.0683   0.00    0.0
2023/06/15 00:29:30.000   3844059.6246    709661.6041   5023129.7644   6   6   0.1489   0.6065   0.1473  -0.2210   0.2262   0.0679   0.00    0.0
2023/06/15 00:30:00.000   3844059.6190    709661.6055   5023129.7557   6   6   0.1468   0.5995   0.1445  -0.2185   0.2220   0.0676   0.00    0.0
2023/06/15 00:30:30.000   3844059.6187    709661.5917   5023129.7446   6   6   0.1448   0.5921   0.1417  -0.2161   0.2176   0.0673   0.00    0.0
2023/06/15 00:31:00.000   3844059.6175    709661.5841   5023129.7388   6   6   0.1429   0.5845   0.1389  -0.2137   0.2129   0.0670   0.00    0.0
2023/06/15 00:31:30.000   3844059.6209    709661.5650   5023129.7302   6   6   0.1410   0.5766   0.1360  -0.2113   0.2081   0.0667   0.00    0.0
2023/06/15 00:32:00.000   3844059.6149    709661.5771   5023129.7344   6   5   0.1392   0.5691   0.1336  -0.2087   0.2038   0.0669   0.00    0.0
2023/06/15 00:32:30.000   3844059.6071    709661.5975   5023129.7398   6   5   0.1375   0.5615   0.1312  -0.2061   0.1994   0.0671   0.00    0.0
2023/06/15 00:33:00.000   3844059.6069    709661.5878   5023129.7333   6   5   0.1359   0.5536   0.1289  -0.2035   0.1948   0.0673   0.00    0.0
2023/06/15 00:33:30.000   3844059.6054    709661.5884   5023129.7302   6   5   0.1343   0.5457   0.1265  -0.2010   0.1902   0.0676   0.00    0.0
2023/06/15 00:34:00.000   3844059.6055    709661.5781   5023129.7232   6   5   0.1328   0.5376   0.1242  -0.1985   0.1855   0.0678   0.00    0.0
2023/06/15 00:34:30.000   3844059.6031    709661.5797   5023129.7193   6   5   0.1313   0.5295   0.1219  -0.1961   0.1807   0.0681   0.00    0.0
2023/06/15 00:35:00.000   3844059.6048    709661.5698   5023129.7143   6   5   0.1299   0.5213   0.1197  -0.1937   0.1758   0.0683   0.00    0.0
2023/06/15 00:35:30.000   3844059.6047    709661.5711   5023129.7135   6   5   0.1285   0.5131   0.1174  -0.1913   0.1708   0.0686   0.00    0.0
2023/06/15 00:36:00.000   3844059.6051    709661.5627   5023129.7091   6   5   0.1271   0.5049   0.1152  -0.1890   0.1659   0.0688   0.00    0.0
2023/06/15 00:36:30.000   3844059.6075    709661.5467   5023129.7025   6   5   0.1259   0.4967   0.1131  -0.1868   0.1609   0.0690   0.00    0.0
2023/06/15 00:37:00.000   3844059.6087    709661.5398   5023129.6998   6   5   0.1246   0.4886   0.1110  -0.1846   0.1559   0.0692   0.00    0.0
2023/06/15 00:37:30.000   3844059.6088    709661.5397   5023129.6992   6   5   0.1234   0.4805   0.1089  -0.1825   0.1509   0.0694   0.00    0.0
2023/06/15 00:38:00.000   3844059.6111    709661.5286   5023129.6947   6   5   0.1222   0.4726   0.1069  -0.1804   0.1459   0.0696   0.00    0.0
2023/06/15 00:38:30.000   3844059.6138    709661.5148   5023129.6902   6   5   0.1210   0.4647   0.1050  -0.1784   0.1409   0.0698   0.00    0.0
2023/06/15 00:39:00.000   3844059.6165    709661.5017   5023129.6875   6   5   0.1199   0.4570   0.1031  -0.1765   0.1359   0.0699   0.00    0.0
2023/06/15 00:39:30.000   3844059.6193    709661.4848   5023129.6837   6   5   0.1188   0.4494   0.1013  -0.1745   0.1310   0.0700   0.00    0.0
2023/06/15 00:40:00.000   3844059.6209    709661.4747   5023129.6808   6   5   0.1177   0.4420   0.0995  -0.1727   0.1261   0.0701   0.00    0.0
2023/06/15 00:40:30.000   3844059.6235    709661.4603   5023129.6766   6   5   0.1167   0.4347   0.0978  -0.1709   0.1212   0.0702   0.00    0.0
2023/06/15 00:41:00.000   3844059.6230    709661.4567   5023129.6745   6   5   0.1156   0.4275   0.0961  -0.1691   0.1164   0.0703   0.00    0.0
2023/06/15 00:41:30.000   3844059.6245    709661.4546   5023129.6720   6   5   0.1146   0.4206   0.0945  -0.1674   0.1116   0.0704   0.00    0.0
2023/06/15 00:42:00.000   3844059.6250    709661.4626   5023129.6758   6   5   0.1137   0.4138   0.0930  -0.1657   0.1068   0.0704   0.00    0.0
2023/06/15 00:42:30.000   3844059.6251    709661.4743   5023129.6780   6   5   0.1127   0.4071   0.0915  -0.1641   0.1021   0.0704   0.00    0.0
2023/06/15 00:43:00.000   3844059.6241    709661.4876   5023129.6822   6   5   0.1117   0.4006   0.0901  -0.1625   0.0974   0.0705   0.00    0.0
2023/06/15 00:43:30.000   3844059.6269    709661.4880   5023129.6844   6   5   0.1108   0.3943   0.0887  -0.1609   0.0927   0.0705   0.00    0.0
2023/06/15 00:44:00.000   3844059.6290    709661.4868   5023129.6856   6   5   0.1099   0.3881   0.0874  -0.1594   0.0881   0.0705   0.00    0.0
2023/06/15 00:44:30.000   3844059.6316    709661.4818   5023129.6851   6   5   0.1090   0.3821   0.0862  -0.1578   0.0835   0.0704   0.00    0.0
2023/06/15 00:45:00.000   3844059.6336    709661.4845   5023129.6872   6   5   0.1081   0.3762   0.0850  -0.1564   0.0788   0.0704   0.00    0.0
2023/06/15 00:45:30.000   3844059.6348    709661.4881   5023129.6896   6   5   0.1072   0.3705   0.0838  -0.1549   0.0742   0.0704   0.00    0.0
2023/06/15 00:46:00.000   3844059.6362    709661.4901   5023129.6920   6   5   0.1064   0.3650   0.0827  -0.1535   0.0696   0.0703   0.00    0.0
2023/06/15 00:46:30.000   3844059.6391    709661.4840   5023129.6935   6   5   0.1055   0.3595   0.0817  -0.1520   0.0649   0.0703   0.00    0.0
2023/06/15 00:47:00.000   3844059.6414    709661.4773   5023129.6940   6   5   0.1047   0.3543   0.0807  -0.1506   0.0601   0.0702   0.00    0.0
2023/06/15 00:47:30.000   3844059.6468    709661.4575   5023129.6905   6   5   0.1039   0.3491   0.0797  -0.1493   0.0553   0.0701   0.00    0.0
2023/06/15 00:48:00.000   3844059.6484    709661.4600   5023129.6932   6   5   0.1030   0.3441   0.0788  -0.1479   0.0503   0.0700   0.00    0.0
2023/06/15 00:48:30.000   3844059.6513    709661.4554   5023129.6945   6   5   0.1022   0.3392   0.0779  -0.1465   0.0451   0.0699   0.00    0.0
2023/06/15 00:49:00.000   3844059.6532    709661.4551   5023129.6976   6   5   0.1014   0.3344   0.0770  -0.1452   0.0397   0.0698   0.00    0.0
2023/06/15 00:49:30.000   3844059.6557    709661.4469   5023129.6972   6   5   0.1006   0.3297   0.0762  -0.1439   0.0337   0.0697   0.00    0.0
2023/06/15 00:50:00.000   3844059.6580    709661.4372   5023129.6965   6   5   0.0998   0.3251   0.0755  -0.1425   0.0270   0.0696   0.00    0.0
2023/06/15 00:50:30.000   3844059.6606    709661.4330   5023129.6980   6   5   0.0990   0.3206   0.0747  -0.1412   0.0185   0.0694   0.00    0.0
2023/06/15 00:51:00.000   3844059.6631    709661.4295   5023129.6988   6   5   0.0982   0.3162   0.0740  -0.1399  -0.0039   0.0693   0.00    0.0
2023/06/15 00:51:30.000   3844059.6644    709661.4323   5023129.7008   6   5   0.0974   0.3120   0.0733  -0.1386  -0.0188   0.0691   0.00    0.0
2023/06/15 00:52:00.000   3844059.6655    709661.4379   5023129.7038   6   5   0.0967   0.3078   0.0727  -0.1373  -0.0258   0.0690   0.00    0.0
2023/06/15 00:52:30.000   3844059.6673    709661.4387   5023129.7050   6   5   0.0959   0.3037   0.0721  -0.1360  -0.0310   0.0688   0.00    0.0
2023/06/15 00:53:00.000   3844059.6678    709661.4404   5023129.7058   6   5   0.0951   0.2996   0.0715  -0.1347  -0.0351   0.0686   0.00    0.0
2023/06/15 00:53:30.000   3844059.6699    709661.4368   5023129.7061   6   5   0.0943   0.2957   0.0709  -0.1335  -0.0386   0.0685   0.00    0.0
2023/06/15 00:54:00.000   3844059.6700    709661.4416   5023129.7076   6   5   0.0936   0.2918   0.0703  -0.1322  -0.0415   0.0683   0.00    0.0
2023/06/15 00:54:30.000   3844059.6711    709661.4434   5023129.7098   6   5   0.0928   0.2880   0.0698  -0.1309  -0.0441   0.0681   0.00    0.0
2023/06/15 00:55:00.000   3844059.6725    709661.4394   5023129.7100   6   5   0.0920   0.2843   0.0693  -0.1296  -0.0463   0.0679   0.00    0.0
2023/06/15 00:55:30.000   3844059.6788    709661.4093   5023129.7048   6   5   0.0913   0.2806   0.0688  -0.1283  -0.0483   0.0676   0.00    0.0
2023/06/15 00:56:00.000   3844059.6803    709661.3932   5023129.7003   6   5   0.0905   0.2770   0.0683  -0.1271  -0.0501   0.0674   0.00    0.0
2023/06/15 00:56:30.000   3844059.6805    709661.3807   5023129.6954   6   5   0.0897   0.2735   0.0678  -0.1258  -0.0516   0.0672   0.00    0.0
2023/06/15 00:57:00.000   3844059.6811    709661.3719   5023129.6930   6   5   0.0890   0.2700   0.0674  -0.1245  -0.0530   0.0669   0.00    0.0
2023/06/15 00:57:30.000   3844059.6824    709661.3557   5023129.6883   6   5   0.0882   0.2666   0.0669  -0.1232  -0.0542   0.0667   0.00    0.0
2023/06/15 00:58:00.000   3844059.6834    709661.3410   5023129.6838   6   5   0.0875   0.2632   0.0665  -0.1219  -0.0553   0.0664   0.00    0.0
2023/06/15 00:58:30.000   3844059.6847    709661.3275   5023129.6797   6   5   0.0867   0.2599   0.0661  -0.1207  -0.0563   0.0662   0.00    0.0
2023/06/15 00:59:00.000   3844059.6844    709661.3199   5023129.6761   6   5   0.0859   0.2566   0.0657  -0.1194  -0.0572   0.0659   0.00    0.0
2023/06/15 00:59:30.000   3844059.6836    709661.3187   5023129.6743   6   5   0.0852   0.2534   0.0653  -0.1181  -0.0579   0.0656   0.00    0.0
2023/06/15 01:00:00.000   3844059.6830    709661.3179   5023129.6725   6   5   0.0844   0.2502   0.0649  -0.1168  -0.0586   0.0653   0.00    0.0
2023/06/15 01:00:30.000   3844059.6827    709661.3151   5023129.6706   6   5   0.0836   0.2470   0.0645  -0.1155  -0.0592   0.0650   0.00    0.0
2023/06/15 01:01:00.000   3844059.6835    709661.3114   5023129.6697   6   5   0.0829   0.2440   0.0641  -0.1143  -0.0597   0.0647   0.00    0.0
2023/06/15 01:01:30.000   3844059.6831    709661.3116   5023129.6686   6   5   0.0821   0.2409   0.0637  -0.1130  -0.0601   0.0644   0.00    0.0
2023/06/15 01:02:00.000   3844059.6848    709661.3027   5023129.6665   6   5   0.0813   0.2379   0.0633  -0.1117  -0.0604   0.0641   0.00    0.0
2023/06/15 01:02:30.000   3844059.6851    709661.2946   5023129.6628   6   5   0.0806   0.2350   0.0630  -0.1104  -0.0607   0.0637   0.00    0.0
2023/06/15 01:03:00.000   3844059.6846    709661.2954   5023129.6615   6   5   0.0798   0.2320   0.0626  -0.1091  -0.0609   0.0634   0.00    0.0
2023/06/15 01:03:30.000   3844059.6857    709661.2928   5023129.6609   6   5   0.0790   0.2291   0.0622  -0.1078  -0.0611   0.0630   0.00    0.0
2023/06/15 01:04:00.000   3844059.6847    709661.2915   5023129.6589   6   6   0.0783   0.2263   0.0619  -0.1066  -0.0612   0.0627   0.00    0.0
2023/06/15 01:04:30.000   3844059.6837    709661.2937   5023129.6583   6   6   0.0775   0.2235   0.0615  -0.1053  -0.0613   0.0623   0.00    0.0
2023/06/15 01:05:00.000   3844059.6839    709661.2894   5023129.6569   6   6   0.0767   0.2207   0.0611  -0.1040  -0.0613   0.0619   0.00    0.0
2023/06/15 01:05:30.000   3844059.6836    709661.2849   5023129.6544   6   6   0.0759   0.2180   0.0607  -0.1027  -0.0612   0.0615   0.00    0.0
2023/06/15 01:06:00.000   3844059.6836    709661.2826   5023129.6531   6   6   0.0751   0.2153   0.0603  -0.1014  -0.0611   0.0611   0.00    0.0
2023/06/15 01:06:30.000   3844059.6816    709661.2868   5023129.6517   6   6   0.0743   0.2126   0.0599  -0.1001  -0.0610   0.0606   0.00    0.0
2023/06/15 01:07:00.000   3844059.6805    709661.2875   5023129.6506   6   6   0.0735   0.2100   0.0595  -0.0988  -0.0608   0.0601   0.00    0.0
2023/06/15 01:07:30.000   3844059.6779    709661.2942   5023129.6498   6   6   0.0726   0.2074   0.0590  -0.0975  -0.0606   0.0596   0.00    0.0
2023/06/15 01:08:00.000   3844059.6769    709661.2923   5023129.6480   6   6   0.0717   0.2048   0.0585  -0.0962  -0.0603   0.0591   0.00    0.0
2023/06/15 01:08:30.000   3844059.6751    709661.2916   5023129.6452   6   6   0.0708   0.2023   0.0580  -0.0948  -0.0600   0.0585   0.00    0.0
2023/06/15 01:09:00.000   3844059.6731    709661.2943   5023129.6433   6   6   0.0699   0.1998   0.0575  -0.0935  -0.0596   0.0579   0.00    0.0
2023/06/15 01:09:30.000   3844059.6710    709661.3000   5023129.6423   6   6   0.0690   0.1973   0.0570  -0.0922  -0.0592   0.0573   0.00    0.0
2023/06/15 01:10:00.000   3844059.6697    709661.3035   5023129.6413   6   6   0.0681   0.1949   0.0564  -0.0909  -0.0588   0.0567   0.00    0.0
2023/06/15 01:10:30.000   3844059.6692    709661.3008   5023129.6393   6   6   0.0672   0.1925   0.0558  -0.0896  -0.0583   0.0560   0.00    0.0
2023/06/15 01:11:00.000   3844059.6686    709661.3018   5023129.6383   6   6   0.0662   0.1901   0.0553  -0.0882  -0.0579   0.0553   0.00    0.0
2023/06/15 01:11:30.000   3844059.6678    709661.3061   5023129.6383   6   6   0.0653   0.1878   0.0547  -0.0869  -0.0574   0.0547   0.00    0.0
2023/06/15 01:12:00.000   3844059.6678    709661.3090   5023129.6387   6   6   0.0643   0.1855   0.0541  -0.0856  -0.0569   0.0540   0.00    0.0
2023/06/15 01:12:30.000   3844059.6669    709661.3092   5023129.6369   6   6   0.0633   0.1832   0.0535  -0.0843  -0.0563   0.0533   0.00    0.0
2023/06/15 01:13:00.000   3844059.6657    709661.3170   5023129.6373   6   6   0.0624   0.1810   0.0529  -0.0830  -0.0558   0.0526   0.00    0.0
2023/06/15 01:13:30.000   3844059.6640    709661.3270   5023129.6378   6   6   0.0614   0.1788   0.0523  -0.0818  -0.0552   0.0519   0.00    0.0
2023/06/15 01:14:00.000   3844059.6624    709661.3347   5023129.6378   6   6   0.0605   0.1767   0.0516  -0.0805  -0.0547   0.0512   0.00    0.0
2023/06/15 01:14:30.000   3844059.6613    709661.3397   5023129.6378   6   6   0.0595   0.1746   0.0510  -0.0793  -0.0541   0.0504   0.00    0.0
2023/06/15 01:15:00.000   3844059.6610    709661.3428   5023129.6380   6   6   0.0586   0.1725   0.0504  -0.0780  -0.0535   0.0497   0.00    0.0
2023/06/15 01:15:30.000   3844059.6602    709661.3495   5023129.6384   6   6   0.0577   0.1704   0.0498  -0.0768  -0.0530   0.0490   0.00    0.0
2023/06/15 01:16:00.000   3844059.6597    709661.3523   5023129.6382   6   6   0.0568   0.1684   0.0492  -0.0756  -0.0524   0.0483   0.00    0.0
2023/06/15 01:16:30.000   3844059.6595    709661.3576   5023129.6391   6   6   0.0559   0.1665   0.0486  -0.0744  -0.0518   0.0476   0.00    0.0
2023/06/15 01:17:00.000   3844059.6588    709661.3620   5023129.6392   6   6   0.0550   0.1645   0.0480  -0.0732  -0.0513   0.0470   0.00    0.0
2023/06/15 01:17:30.000   3844059.6583    709661.3658   5023129.6392   6   6   0.0541   0.1626   0.0474  -0.0721  -0.0507   0.0463   0.00    0.0
2023/06/15 01:18:00.000   3844059.6571    709661.3740   5023129.6398   6   6   0.0533   0.1608   0.0469  -0.0710  -0.0501   0.0456   0.00    0.0
2023/06/15 01:18:30.000   3844059.6563    709661.3802   5023129.6405   6   6   0.0525   0.1589   0.0463  -0.0699  -0.0496   0.0450   0.00    0.0
2023/06/15 01:19:00.000   3844059.6565    709661.3823   5023129.6409   6   6   0.0516   0.1571   0.0458  -0.0688  -0.0491   0.0443   0.00    0.0
2023/06/15 01:19:30.000   3844059.6564    709661.3851   5023129.6410   6   6   0.0508   0.1554   0.0452  -0.0677  -0.0485   0.0437   0.00    0.0
2023/06/15 01:20:00.000   3844059.6567    709661.3877   5023129.6413   6   6   0.0500   0.1537   0.0447  -0.0667  -0.0480   0.0431   0.00    0.0
2023/06/15 01:20:30.000   3844059.6558    709661.3939   5023129.6416   6   6   0.0493   0.1520   0.0442  -0.0656  -0.0475   0.0425   0.00    0.0
2023/06/15 01:21:00.000   3844059.6559    709661.3940   5023129.6415   6   6   0.0485   0.1503   0.0437  -0.0646  -0.0470   0.0419   0.00    0.0
2023/06/15 01:21:30.000   3844059.6559    709661.3987   5023129.6424   6   6   0.0478   0.1487   0.0432  -0.0636  -0.0465   0.0413   0.00    0.0
2023/06/15 01:22:00.000   3844059.6564    709661.4014   5023129.6434   6   6   0.0471   0.1471   0.0427  -0.0626  -0.0460   0.0408   0.00    0.0
2023/06/15 01:22:30.000   3844059.6565    709661.4067   5023129.6445   6   6   0.0464   0.1455   0.0422  -0.0617  -0.0455   0.0402   0.00    0.0
2023/06/15 01:23:00.000   3844059.6564    709661.4091   5023129.6449   6   6   0.0457   0.1440   0.0418  -0.0608  -0.0451   0.0397   0.00    0.0
2023/06/15 01:23:30.000   3844059.6566    709661.4089   5023129.6448   6   6   0.0450   0.1425   0.0413  -0.0599  -0.0446   0.0391   0.00    0.0
2023/06/15 01:24:00.000   3844059.6570    709661.4089   5023129.6451   6   6   0.0444   0.1410   0.0409  -0.0590  -0.0442   0.0386   0.00    0.0
2023/06/15 01:24:30.000   3844059.6569    709661.4083   5023129.6447   6   6   0.0437   0.1395   0.0404  -0.0581  -0.0437   0.0381   0.00    0.0
2023/06/15 01:25:00.000   3844059.6575    709661.4058   5023129.6444   6   6   0.0431   0.1381   0.0400  -0.0572  -0.0433   0.0376   0.00    0.0
2023/06/15 01:25:30.000   3844059.6583    709661.4016   5023129.6440   6   6   0.0425   0.1367   0.0396  -0.0564  -0.0429   0.0372   0.00    0.0
2023/06/15 01:26:00.000   3844059.6569    709661.4114   5023129.6443   6   7   0.0419   0.1353   0.0392  -0.0556  -0.0425   0.0367   0.00    0.0
2023/06/15 01:26:30.000   3844059.6562    709661.4155   5023129.6440   6   7   0.0414   0.1340   0.0388  -0.0547  -0.0421   0.0362   0.00    0.0
2023/06/15 01:27:00.000   3844059.6561    709661.4180   5023129.6440   6   7   0.0408   0.1327   0.0385  -0.0540  -0.0417   0.0358   0.00    0.0
2023/06/15 01:27:30.000   3844059.6560    709661.4242   5023129.6450   6   7   0.0403   0.1314   0.0381  -0.0532  -0.0413   0.0353   0.00    0.0
2023/06/15 01:28:00.000   3844059.6560    709661.4285   5023129.6455   6   7   0.0397   0.1301   0.0377  -0.0524  -0.0409   0.0349   0.00    0.0
2023/06/15 01:28:30.000   3844059.6556    709661.4310   5023129.6452   6   7   0.0392   0.1289   0.0374  -0.0517  -0.0406   0.0345   0.00    0.0
2023/06/15 01:29:00.000   3844059.6555    709661.4382   5023129.6464   6   7   0.0387   0.1277   0.0370  -0.0509  -0.0402   0.0341   0.00    0.0
2023/06/15 01:29:30.000   3844059.6556    709661.4446   5023129.6474   6   7   0.0382   0.1265   0.0367  -0.0502  -0.0399   0.0337   0.00    0.0
2023/06/15 01:30:00.000   3844059.6560    709661.4472   5023129.6480   6   7   0.0377   0.1253   0.0364  -0.0495  -0.0396   0.0333   0.00    0.0
2023/06/15 01:30:30.000   3844059.6551    709661.4543   5023129.6482   6   7   0.0372   0.1241   0.0361  -0.0489  -0.0392   0.0330   0.00    0.0
2023/06/15 01:31:00.000   3844059.6543    709661.4593   5023129.6479   6   7   0.0368   0.1230   0.0357  -0.0482  -0.0389   0.0326   0.00    0.0
2023/06/15 01:31:30.000   3844059.6532    709661.4651   5023129.6476   6   7   0.0363   0.1219   0.0354  -0.0475  -0.0386   0.0322   0.00    0.0
2023/06/15 01:32:00.000   3844059.6526    709661.4733   5023129.6484   6   7   0.0359   0.1208   0.0351  -0.0469  -0.0383   0.0319   0.00    0.0
2023/06/15 01:32:30.000   3844059.6519    709661.4809   5023129.6489   6   7   0.0355   0.1197   0.0349  -0.0463  -0.0380   0.0315   0.00    0.0
2023/06/15 01:33:00.000   3844059.6510    709661.4879   5023129.6491   6   7   0.0351   0.1187   0.0346  -0.0456  -0.0377   0.0312   0.00    0.0
2023/06/15 01:33:30.000   3844059.6497    709661.4919   5023129.6481   6   7   0.0346   0.1176   0.0343  -0.0450  -0.0374   0.0309   0.00    0.0
2023/06/15 01:34:00.000   3844059.6485    709661.4974   5023129.6478   6   7   0.0343   0.1166   0.0340  -0.0444  -0.0372   0.0306   0.00    0.0
2023/06/15 01:34:30.000   3844059.6478    709661.5032   5023129.6480   6   7   0.0339   0.1156   0.0338  -0.0439  -0.0369   0.0302   0.00    0.0
2023/06/15 01:35:00.000   3844059.6474    709661.5075   5023129.6483   6   7   0.0335   0.1146   0.0335  -0.0433  -0.0366   0.0299   0.00    0.0
2023/06/15 01:35:30.000   3844059.6477    709661.5130   5023129.6495   6   7   0.0331   0.1136   0.0333  -0.0427  -0.0364   0.0296   0.00    0.0
2023/06/15 01:36:00.000   3844059.6477    709661.5158   5023129.6499   6   7   0.0327   0.1127   0.0330  -0.0422  -0.0361   0.0294   0.00    0.0
2023/06/15 01:36:30.000   3844059.6474    709661.5202   5023129.6502   6   7   0.0324   0.1117   0.0328  -0.0416  -0.0359   0.0291   0.00    0.0
2023/06/15 01:37:00.000   3844059.6469    709661.5235   5023129.6503   6   7   0.0320   0.1108   0.0325  -0.0411  -0.0357   0.0288   0.00    0.0
2023/06/15 01:37:30.000   3844059.6471    709661.5254   5023129.6506   6   7   0.0317   0.1099   0.0323  -0.0406  -0.0354   0.0285   0.00    0.0
2023/06/15 01:38:00.000   3844059.6474    709661.5280   5023129.6512   6   7   0.0314   0.1090   0.0321  -0.0401  -0.0352   0.0282   0.00    0.0
2023/06/15 01:38:30.000   3844059.6471    709661.5316   5023129.6514   6   7   0.0311   0.1081   0.0319  -0.0396  -0.0350   0.0280   0.00    0.0
2023/06/15 01:39:00.000   3844059.6468    709661.5381   5023129.6522   6   7   0.0307   0.1072   0.0317  -0.0391  -0.0348   0.0277   0.00    0.0
2023/06/15 01:39:30.000   3844059.6462    709661.5453   5023129.6527   6   7   0.0304   0.1064   0.0314  -0.0386  -0.0346   0.0275   0.00    0.0
2023/06/15 01:40:00.000   3844059.6461    709661.5493   5023129.6532   6   7   0.0301   0.1055   0.0312  -0.0381  -0.0344   0.0272   0.00    0.0
2023/06/15 01:40:30.000   3844059.6460    709661.5532   5023129.6537   6   7   0.0298   0.1047   0.0310  -0.0377  -0.0341   0.0270   0.00    0.0
2023/06/15 01:41:00.000   3844059.6460    709661.5565   5023129.6542   6   7   0.0295   0.1039   0.0308  -0.0372  -0.0340   0.0268   0.00    0.0
2023/06/15 01:41:30.000   3844059.6463    709661.5586   5023129.6547   6   7   0.0292   0.1031   0.0307  -0.0368  -0.0338   0.0265   0.00    0.0
2023/06/15 01:42:00.000   3844059.6463    709661.5613   5023129.6550   6   7   0.0290   0.1023   0.0305  -0.0363  -0.0336   0.0263   0.00    0.0
2023/06/15 01:42:30.000   3844059.6464    709661.5603   5023129.6545   6   7   0.0287   0.1015   0.0303  -0.0359  -0.0334   0.0261   0.00    0.0
2023/06/15 01:43:00.000   3844059.6467    709661.5612   5023129.6547   6   7   0.0284   0.1007   0.0301  -0.0355  -0.0332   0.0259   0.00    0.0
2023/06/15 01:43:30.000   3844059.6469    709661.5656   5023129.6554   6   7   0.0282   0.0999   0.0299  -0.0351  -0.0330   0.0256   0.00    0.0
2023/06/15 01:44:00.000   3844059.6478    709661.5671   5023129.6563   6   7   0.0279   0.0992   0.0298  -0.0347  -0.0329   0.0254   0.00    0.0
2023/06/15 01:44:30.000   3844059.6483    709661.5675   5023129.6566   6   7   0.0277   0.0984   0.0296  -0.0343  -0.0327   0.0252   0.00    0.0
2023/06/15 01:45:00.000   3844059.6487    709661.5678   5023129.6568   6   7   0.0274   0.0977   0.0294  -0.0339  -0.0325   0.0250   0.00    0.0
2023/06/15 01:45:30.000   3844059.6488    709661.5686   5023129.6570   6   6   0.0272   0.0971   0.0293  -0.0336  -0.0325   0.0249   0.00    0.0
2023/06/15 01:46:00.000   3844059.6491    709661.5705   5023129.6575   6   6   0.0270   0.0965   0.0292  -0.0334  -0.0325   0.0248   0.00    0.0
2023/06/15 01:46:30.000   3844059.6494    709661.5704   5023129.6578   6   6   0.0269   0.0959   0.0291  -0.0331  -0.0325   0.0246   0.00    0.0
2023/06/15 01:47:00.000   3844059.6497    709661.5715   5023129.6582   6   6   0.0267   0.0954   0.0290  -0.0329  -0.0325   0.0245   0.00    0.0
2023/06/15 01:47:30.000   3844059.6504    709661.5683   5023129.6583   6   6   0.0265   0.0948   0.0289  -0.0326  -0.0324   0.0244   0.00    0.0
2023/06/15 01:48:00.000   3844059.6513    709661.5671   5023129.6589   6   6   0.0263   0.0942   0.0288  -0.0324  -0.0324   0.0242   0.00    0.0
2023/06/15 01:48:30.000   3844059.6520    709661.5661   5023129.6593   6   6   0.0262   0.0936   0.0287  -0.0321  -0.0324   0.0241   0.00    0.0
2023/06/15 01:49:00.000   3844059.6525    709661.5660   5023129.6596   6   6   0.0260   0.0931   0.0286  -0.0319  -0.0323   0.0240   0.00    0.0
2023/06/15 01:49:30.000   3844059.6528    709661.5649   5023129.6596   6   7   0.0258   0.0925   0.0285  -0.0316  -0.0323   0.0239   0.00    0.0
2023/06/15 01:50:00.000   3844059.6532    709661.5639   5023129.6599   6   7   0.0256   0.0919   0.0285  -0.0314  -0.0322   0.0237   0.00    0.0
2023/06/15 01:50:30.000   3844059.6537    709661.5647   5023129.6606   6   7   0.0255   0.0913   0.0284  -0.0311  -0.0322   0.0236   0.00    0.0
2023/06/15 01:51:00.000   3844059.6540    709661.5645   5023129.6609   6   7   0.0253   0.0908   0.0283  -0.0309  -0.0321   0.0235   0.00    0.0
2023/06/15 01:51:30.000   3844059.6544    709661.5644   5023129.6614   6   7   0.0251   0.0902   0.0282  -0.0306  -0.0321   0.0234   0.00    0.0
2023/06/15 01:52:00.000   3844059.6547    709661.5636   5023129.6615   6   7   0.0250   0.0896   0.0281  -0.0304  -0.0320   0.0233   0.00    0.0
2023/06/15 01:52:30.000   3844059.6550    709661.5628   5023129.6617   6   7   0.0248   0.0890   0.0280  -0.0301  -0.0319   0.0231   0.00    0.0
2023/06/15 01:53:00.000   3844059.6552    709661.5628   5023129.6621   6   7   0.0247   0.0885   0.0279  -0.0299  -0.0319   0.0230   0.00    0.0
2023/06/15 01:53:30.000   3844059.6549    709661.5637   5023129.6619   6   7   0.0245   0.0879   0.0278  -0.0296  -0.0318   0.0229   0.00    0.0
2023/06/15 01:54:00.000   3844059.6552    709661.5633   5023129.6622   6   7   0.0244   0.0873   0.0277  -0.0294  -0.0317   0.0228   0.00    0.0
2023/06/15 01:54:30.000   3844059.6549    709661.5659   5023129.6623   6   7   0.0242   0.0867   0.0277  -0.0291  -0.0316   0.0227   0.00    0.0
2023/06/15 01:55:00.000   3844059.6547    709661.5666   5023129.6623   6   7   0.0241   0.0862   0.0276  -0.0289  -0.0315   0.0225   0.00    0.0
2023/06/15 01:55:30.000   3844059.6544    709661.5664   5023129.6618   6   7   0.0239   0.0856   0.0275  -0.0286  -0.0314   0.0224   0.00    0.0
2023/06/15 01:56:00.000   3844059.6537    709661.5678   5023129.6614   6   7   0.0238   0.0850   0.0274  -0.0284  -0.0314   0.0223   0.00    0.0
2023/06/15 01:56:30.000   3844059.6530    709661.5681   5023129.6606   6   6   0.0236   0.0845   0.0273  -0.0281  -0.0312   0.0222   0.00    0.0
2023/06/15 01:57:00.000   3844059.6520    709661.5706   5023129.6598   6   6   0.0235   0.0839   0.0273  -0.0278  -0.0311   0.0221   0.00    0.0
2023/06/15 01:57:30.000   3844059.6513    709661.5732   5023129.6595   6   6   0.0234   0.0834   0.0272  -0.0276  -0.0310   0.0220   0.00    0.0
2023/06/15 01:58:00.000   3844059.6507    709661.5748   5023129.6591   6   6   0.0233   0.0828   0.0272  -0.0273  -0.0309   0.0220   0.00    0.0
2023/06/15 01:58:30.000   3844059.6499    709661.5773   5023129.6586   6   6   0.0231   0.0823   0.0271  -0.0270  -0.0307   0.0219   0.00    0.0
2023/06/15 01:59:00.000   3844059.6493    709661.5784   5023129.6580   6   6   0.0230   0.0817   0.0271  -0.0268  -0.0306   0.0218   0.00    0.0
2023/06/15 01:59:30.000   3844059.6489    709661.5788   5023129.6576   6   6   0.0229   0.0812   0.0270  -0.0265  -0.0305   0.0217   0.00    0.0
2023/06/15 02:00:00.000   3844059.6483    709661.5802   5023129.6570   6   6   0.0228   0.0806   0.0269  -0.0262  -0.0304   0.0216   0.00    0.0
2023/06/15 02:00:30.000   3844059.6481    709661.5789   5023129.6565   6   6   0.0227   0.0801   0.0269  -0.0260  -0.0302   0.0215   0.00    0.0
2023/06/15 02:01:00.000   3844059.6474    709661.5806   5023129.6560   6   6   0.0226   0.0796   0.0268  -0.0257  -0.0301   0.0215   0.00    0.0
2023/06/15 02:01:30.000   3844059.6469    709661.5802   5023129.6555   6   6   0.0225   0.0790   0.0268  -0.0254  -0.0299   0.0214   0.00    0.0
2023/06/15 02:02:00.000   3844059.6465    709661.5801   5023129.6551   6   6   0.0223   0.0785   0.0267  -0.0252  -0.0298   0.0213   0.00    0.0
2023/06/15 02:02:30.000   3844059.6462    709661.5793   5023129.6547   6   6   0.0222   0.0779   0.0267  -0.0249  -0.0297   0.0212   0.00    0.0
2023/06/15 02:03:00.000   3844059.6458    709661.5801   5023129.6544   6   6   0.0221   0.0774   0.0266  -0.0247  -0.0295   0.0211   0.00    0.0
2023/06/15 02:03:30.000   3844059.6456    709661.5798   5023129.6540   6   6   0.0220   0.0769   0.0266  -0.0244  -0.0294   0.0211   0.00    0.0
2023/06/15 02:04:00.000   3844059.6454    709661.5804   5023129.6539   6   6   0.0219   0.0764   0.0265  -0.0242  -0.0292   0.0210   0.00    0.0
2023/06/15 02:04:30.000   3844059.6451    709661.5819   5023129.6538   6   6   0.0218   0.0758   0.0265  -0.0239  -0.0291   0.0209   0.00    0.0
2023/06/15 02:05:00.000   3844059.6450    709661.5819   5023129.6537   6   6   0.0217   0.0753   0.0264  -0.0236  -0.0289   0.0208   0.00    0.0
2023/06/15 02:05:30.000   3844059.6447    709661.5816   5023129.6535   6   6   0.0216   0.0748   0.0264  -0.0234  -0.0288   0.0208   0.00    0.0
2023/06/15 02:06:00.000   3844059.6447    709661.5817   5023129.6535   6   7   0.0215   0.0743   0.0263  -0.0231  -0.0286   0.0207   0.00    0.0
2023/06/15 02:06:30.000   3844059.6447    709661.5809   5023129.6534   6   7   0.0214   0.0737   0.0263  -0.0229  -0.0285   0.0206   0.00    0.0
2023/06/15 02:07:00.000   3844059.6446    709661.5808   5023129.6534   6   7   0.0213   0.0732   0.0262  -0.0226  -0.0283   0.0206   0.00    0.0
2023/06/15 02:07:30.000   3844059.6445    709661.5810   5023129.6534   6   7   0.0213   0.0727   0.0262  -0.0224  -0.0282   0.0205   0.00    0.0
2023/06/15 02:08:00.000   3844059.6443    709661.5808   5023129.6534   6   7   0.0212   0.0722   0.0261  -0.0221  -0.0280   0.0204   0.00    0.0
2023/06/15 02:08:30.000   3844059.6441    709661.5808   5023129.6534   6   7   0.0211   0.0717   0.0261  -0.0219  -0.0279   0.0203   0.00    0.0
2023/06/15 02:09:00.000   3844059.6438    709661.5806   5023129.6533   6   7   0.0210   0.0712   0.0260  -0.0217  -0.0277   0.0203   0.00    0.0
2023/06/15 02:09:30.000   3844059.6437    709661.5804   5023129.6535   6   7   0.0209   0.0707   0.0260  -0.0214  -0.0275   0.0202   0.00    0.0
2023/06/15 02:10:00.000   3844059.6437    709661.5799   5023129.6536   6   7   0.0208   0.0702   0.0259  -0.0212  -0.0274   0.0201   0.00    0.0
2023/06/15 02:10:30.000   3844059.6435    709661.5807   5023129.6535   6   7   0.0207   0.0697   0.0259  -0.0209  -0.0272   0.0201   0.00    0.0
2023/06/15 02:11:00.000   3844059.6432    709661.5820   5023129.6536   6   7   0.0206   0.0692   0.0259  -0.0207  -0.0271   0.0200   0.00    0.0
2023/06/15 02:11:30.000   3844059.6430    709661.5819   5023129.6535   6   7   0.0206   0.0688   0.0258  -0.0205  -0.0269   0.0199   0.00    0.0
2023/06/15 02:12:00.000   3844059.6425    709661.5821   5023129.6532   6   7   0.0205   0.0683   0.0258  -0.0202  -0.0267   0.0199   0.00    0.0
2023/06/15 02:12:30.000   3844059.6422    709661.5834   5023129.6529   6   7   0.0204   0.0678   0.0257  -0.0200  -0.0266   0.0198   0.00    0.0
2023/06/15 02:13:00.000   3844059.6421    709661.5847   5023129.6531   6   7   0.0203   0.0673   0.0257  -0.0197  -0.0264   0.0198   0.00    0.0
2023/06/15 02:13:30.000   3844059.6418    709661.5860   5023129.6529   6   7   0.0203   0.0669   0.0256  -0.0195  -0.0263   0.0197   0.00    0.0
2023/06/15 02:14:00.000   3844059.6416    709661.5867   5023129.6526   6   7   0.0202   0.0664   0.0256  -0.0193  -0.0261   0.0196   0.00    0.0
2023/06/15 02:14:30.000   3844059.6414    709661.5886   5023129.6524   6   7   0.0201   0.0659   0.0255  -0.0190  -0.0259   0.0196   0.00    0.0
2023/06/15 02:15:00.000   3844059.6412    709661.5895   5023129.6522   6   7   0.0200   0.0655   0.0255  -0.0188  -0.0258   0.0195   0.00    0.0
2023/06/15 02:15:30.000   3844059.6410    709661.5910   5023129.6519   6   7   0.0200   0.0650   0.0255  -0.0186  -0.0256   0.0195   0.00    0.0
2023/06/15 02:16:00.000   3844059.6405    709661.5919   5023129.6515   6   7   0.0199   0.0646   0.0254  -0.0184  -0.0254   0.0194   0.00    0.0
2023/06/15 02:16:30.000   3844059.6402    709661.5931   5023129.6512   6   7   0.0198   0.0641   0.0254  -0.0181  -0.0253   0.0193   0.00    0.0
2023/06/15 02:17:00.000   3844059.6400    709661.5943   5023129.6510   6   7   0.0197   0.0637   0.0253  -0.0179  -0.0251   0.0193   0.00    0.0
2023/06/15 02:17:30.000   3844059.6400    709661.5951   5023129.6510   6   7   0.0197   0.0632   0.0253  -0.0177  -0.0249   0.0192   0.00    0.0
2023/06/15 02:18:00.000   3844059.6400    709661.5955   5023129.6510   6   7   0.0196   0.0628   0.0252  -0.0175  -0.0248   0.0192   0.00    0.0
2023/06/15 02:18:30.000   3844059.6401    709661.5952   5023129.6510   6   7   0.0195   0.0623   0.0252  -0.0172  -0.0246   0.0191   0.00    0.0
2023/06/15 02:19:00.000   3844059.6401    709661.5946   5023129.6510   6   7   0.0195   0.0619   0.0252  -0.0170  -0.0244   0.0191   0.00    0.0
2023/06/15 02:19:30.000   3844059.6401    709661.5948   5023129.6511   6   7   0.0194   0.0615   0.0251  -0.0168  -0.0243   0.0190   0.00    0.0
2023/06/15 02:20:00.000   3844059.6402    709661.5937   5023129.6513   6   7   0.0194   0.0611   0.0251  -0.0166  -0.0241   0.0190   0.00    0.0
2023/06/15 02:20:30.000   3844059.6402    709661.5936   5023129.6513   6   7   0.0193   0.0606   0.0250  -0.0164  -0.0239   0.0189   0.00    0.0
2023/06/15 02:21:00.000   3844059.6402    709661.5935   5023129.6514   6   7   0.0192   0.0602   0.0250  -0.0161  -0.0238   0.0189   0.00    0.0
2023/06/15 02:21:30.000   3844059.6402    709661.5931   5023129.6514   6   7   0.0192   0.0598   0.0250  -0.0159  -0.0236   0.0188   0.00    0.0
2023/06/15 02:22:00.000   3844059.6401    709661.5937   5023129.6514   6   7   0.0191   0.0594   0.0249  -0.0157  -0.0234   0.0188   0.00    0.0
2023/06/15 02:22:30.000   3844059.6399    709661.5943   5023129.6515   6   7   0.0191   0.0590   0.0249  -0.0155  -0.0232   0.0187   0.00    0.0
2023/06/15 02:23:00.000   3844059.6398    709661.5940   5023129.6515   6   7   0.0190   0.0586   0.0249  -0.0153  -0.0231   0.0187   0.00    0.0
2023/06/15 02:23:30.000   3844059.6396    709661.5941   5023129.6514   6   7   0.0189   0.0582   0.0248  -0.0151  -0.0229   0.0186   0.00    0.0
2023/06/15 02:24:00.000   3844059.6395    709661.5943   5023129.6514   6   7   0.0189   0.0578   0.0248  -0.0149  -0.0227   0.0186   0.00    0.0
2023/06/15 02:24:30.000   3844059.6394    709661.5937   5023129.6514   6   7   0.0188   0.0574   0.0247  -0.0146  -0.0226   0.0185   0.00    0.0
2023/06/15 02:25:00.000   3844059.6394    709661.5934   5023129.6515   6   7   0.0188   0.0570   0.0247  -0.0144  -0.0224   0.0185   0.00    0.0
2023/06/15 02:25:30.000   3844059.6393    709661.5936   5023129.6514   6   7   0.0187   0.0566   0.0247  -0.0142  -0.0222   0.0184   0.00    0.0
2023/06/15 02:26:00.000   3844059.6391    709661.5942   5023129.6514   6   7   0.0187   0.0563   0.0246  -0.0140  -0.0221   0.0184   0.00    0.0
2023/06/15 02:26:30.000   3844059.6391    709661.5941   5023129.6513   6   7   0.0186   0.0559   0.0246  -0.0138  -0.0219   0.0184   0.00    0.0
2023/06/15 02:27:00.000   3844059.6391    709661.5961   5023129.6515   6   7   0.0186   0.0555   0.0246  -0.0136  -0.0217   0.0183   0.00    0.0
2023/06/15 02:27:30.000   3844059.6390    709661.5980   5023129.6514   6   7   0.0185   0.0551   0.0245  -0.0134  -0.0216   0.0183   0.00    0.0
2023/06/15 02:28:00.000   3844059.6391    709661.5987   5023129.6514   6   7   0.0185   0.0548   0.0245  -0.0132  -0.0214   0.0182   0.00    0.0
2023/06/15 02:28:30.000   3844059.6390    709661.5995   5023129.6513   6   7   0.0184   0.0544   0.0244  -0.0130  -0.0212   0.0182   0.00    0.0
2023/06/15 02:29:00.000   3844059.6388    709661.6001   5023129.6511   6   7   0.0184   0.0541   0.0244  -0.0128  -0.0211   0.0181   0.00    0.0
2023/06/15 02:29:30.000   3844059.6387    709661.6012   5023129.6510   6   7   0.0183   0.0537   0.0244  -0.0126  -0.0209   0.0181   0.00    0.0
2023/06/15 02:30:00.000   3844059.6388    709661.6014   5023129.6511   6   7   0.0183   0.0534   0.0243  -0.0123  -0.0207   0.0181   0.00    0.0
2023/06/15 02:30:30.000   3844059.6389    709661.6016   5023129.6511   6   7   0.0182   0.0530   0.0243  -0.0121  -0.0205   0.0180   0.00    0.0
2023/06/15 02:31:00.000   3844059.6389    709661.6017   5023129.6510   6   7   0.0182   0.0527   0.0243  -0.0119  -0.0204   0.0180   0.00    0.0
2023/06/15 02:31:30.000   3844059.6389    709661.6020   5023129.6510   6   7   0.0181   0.0523   0.0242  -0.0117  -0.0202   0.0179   0.00    0.0
2023/06/15 02:32:00.000   3844059.6388    709661.6025   5023129.6508   6   7   0.0181   0.0520   0.0242  -0.0115  -0.0200   0.0179   0.00    0.0
2023/06/15 02:32:30.000   3844059.6388    709661.6030   5023129.6506   6   7   0.0181   0.0517   0.0242  -0.0113  -0.0199   0.0179   0.00    0.0
2023/06/15 02:33:00.000   3844059.6389    709661.6035   5023129.6506   6   7   0.0180   0.0513   0.0241  -0.0111  -0.0197   0.0178   0.00    0.0
2023/06/15 02:33:30.000   3844059.6388    709661.6043   5023129.6504   6   7   0.0180   0.0510   0.0241  -0.0109  -0.0195   0.0178   0.00    0.0
2023/06/15 02:34:00.000   3844059.6389    709661.6044   5023129.6504   6   7   0.0179   0.0507   0.0241  -0.0107  -0.0194   0.0178   0.00    0.0
2023/06/15 02:34:30.000   3844059.6387    709661.6046   5023129.6504   6   7   0.0179   0.0504   0.0240  -0.0105  -0.0192   0.0177   0.00    0.0
2023/06/15 02:35:00.000   3844059.6389    709661.6040   5023129.6505   6   7   0.0178   0.0501   0.0240  -0.0103  -0.0190   0.0177   0.00    0.0
2023/06/15 02:35:30.000   3844059.6389    709661.6033   5023129.6506   6   7   0.0178   0.0498   0.0240  -0.0101  -0.0189   0.0176   0.00    0.0
2023/06/15 02:36:00.000   3844059.6389    709661.6028   5023129.6505   6   7   0.0178   0.0494   0.0239  -0.0099  -0.0187   0.0176   0.00    0.0
2023/06/15 02:36:30.000   3844059.6389    709661.6023   5023129.6505   6   7   0.0177   0.0491   0.0239  -0.0096  -0.0185   0.0176   0.00    0.0
2023/06/15 02:37:00.000   3844059.6388    709661.6020   5023129.6505   6   7   0.0177   0.0488   0.0239  -0.0094  -0.0184   0.0175   0.00    0.0
2023/06/15 02:37:30.000   3844059.6388    709661.6010   5023129.6506   6   7   0.0177   0.0485   0.0238  -0.0092  -0.0182   0.0175   0.00    0.0
2023/06/15 02:38:00.000   3844059.6388    709661.6003   5023129.6505   6   7   0.0176   0.0483   0.0238  -0.0090  -0.0180   0.0175   0.00    0.0
2023/06/15 02:38:30.000   3844059.6386    709661.5997   5023129.6504   6   7   0.0176   0.0480   0.0238  -0.0088  -0.0179   0.0174   0.00    0.0
2023/06/15 02:39:00.000   3844059.6384    709661.5991   5023129.6503   6   7   0.0175   0.0477   0.0237  -0.0086  -0.0177   0.0174   0.00    0.0
2023/06/15 02:39:30.000   3844059.6382    709661.5982   5023129.6502   6   7   0.0175   0.0474   0.0237  -0.0084  -0.0175   0.0174   0.00    0.0
2023/06/15 02:40:00.000   3844059.6381    709661.5967   5023129.6503   6   7   0.0175   0.0471   0.0237  -0.0081  -0.0174   0.0173   0.00    0.0
2023/06/15 02:40:30.000   3844059.6380    709661.5956   5023129.6502   6   7   0.0174   0.0468   0.0236  -0.0079  -0.0172   0.0173   0.00    0.0
2023/06/15 02:41:00.000   3844059.6379    709661.5944   5023129.6502   6   7   0.0174   0.0466   0.0236  -0.0077  -0.0170   0.0173   0.00    0.0
2023/06/15 02:41:30.000   3844059.6378    709661.5928   5023129.6502   6   7   0.0174   0.0463   0.0236  -0.0075  -0.0169   0.0172   0.00    0.0
2023/06/15 02:42:00.000   3844059.6374    709661.5917   5023129.6501   6   7   0.0173   0.0460   0.0235  -0.0072  -0.0167   0.0172   0.00    0.0
2023/06/15 02:42:30.000   3844059.6371    709661.5908   5023129.6498   6   7   0.0173   0.0457   0.0235  -0.0070  -0.0166   0.0172   0.00    0.0
2023/06/15 02:43:00.000   3844059.6368    709661.5899   5023129.6496   6   7   0.0173   0.0455   0.0235  -0.0068  -0.0164   0.0172   0.00    0.0
2023/06/15 02:43:30.000   3844059.6365    709661.5894   5023129.6494   6   7   0.0172   0.0452   0.0234  -0.0065  -0.0162   0.0171   0.00    0.0
2023/06/15 02:44:00.000   3844059.6362    709661.5888   5023129.6492   6   7   0.0172   0.0450   0.0234  -0.0063  -0.0161   0.0171   0.00    0.0
2023/06/15 02:44:30.000   3844059.6358    709661.5882   5023129.6489   6   7   0.0172   0.0447   0.0233  -0.0060  -0.0159   0.0171   0.00    0.0
2023/06/15 02:45:00.000   3844059.6355    709661.5879   5023129.6487   6   7   0.0171   0.0445   0.0233  -0.0058  -0.0157   0.0170   0.00    0.0
2023/06/15 02:45:30.000   3844059.6353    709661.5870   5023129.6486   6   7   0.0171   0.0442   0.0233  -0.0055  -0.0156   0.0170   0.00    0.0
2023/06/15 02:46:00.000   3844059.6349    709661.5863   5023129.6484   6   7   0.0171   0.0440   0.0232  -0.0052  -0.0154   0.0170   0.00    0.0
2023/06/15 02:46:30.000   3844059.6347    709661.5854   5023129.6483   6   7   0.0170   0.0437   0.0232  -0.0050  -0.0153   0.0169   0.00    0.0
2023/06/15 02:47:00.000   3844059.6344    709661.5848   5023129.6481   6   7   0.0170   0.0435   0.0232  -0.0047  -0.0151   0.0169   0.00    0.0
2023/06/15 02:47:30.000   3844059.6343    709661.5838   5023129.6481   6   7   0.0170   0.0432   0.0231  -0.0044  -0.0149   0.0169   0.00    0.0
2023/06/15 02:48:00.000   3844059.6339    709661.5831   5023129.6479   6   7   0.0169   0.0430   0.0231  -0.0040  -0.0148   0.0168   0.00    0.0
2023/06/15 02:48:30.000   3844059.6335    709661.5822   5023129.6477   6   7   0.0169   0.0428   0.0231  -0.0037  -0.0146   0.0168   0.00    0.0
2023/06/15 02:49:00.000   3844059.6332    709661.5813   5023129.6476   6   7   0.0169   0.0425   0.0230  -0.0033  -0.0145   0.0168   0.00    0.0
2023/06/15 02:49:30.000   3844059.6329    709661.5807   5023129.6474   6   7   0.0168   0.0423   0.0230  -0.0029  -0.0143   0.0167   0.00    0.0
2023/06/15 02:50:00.000   3844059.6326    709661.5800   5023129.6473   6   7   0.0168   0.0421   0.0230  -0.0025  -0.0141   0.0167   0.00    0.0
2023/06/15 02:50:30.000   3844059.6323    709661.5794   5023129.6471   6   7   0.0168   0.0419   0.0229  -0.0019  -0.0140   0.0167   0.00    0.0
2023/06/15 02:51:00.000   3844059.6320    709661.5789   5023129.6470   6   7   0.0167   0.0416   0.0229  -0.0011  -0.0138   0.0166   0.00    0.0
2023/06/15 02:51:30.000   3844059.6317    709661.5785   5023129.6470   6   7   0.0167   0.0414   0.0228   0.0010  -0.0137   0.0166   0.00    0.0
2023/06/15 02:52:00.000   3844059.6315    709661.5781   5023129.6470   6   7   0.0167   0.0412   0.0228   0.0018  -0.0135   0.0166   0.00    0.0
2023/06/15 02:52:30.000   3844059.6312    709661.5777   5023129.6471   6   7   0.0167   0.0410   0.0228   0.0024  -0.0134   0.0166   0.00    0.0
2023/06/15 02:53:00.000   3844059.6311    709661.5770   5023129.6471   6   7   0.0166   0.0408   0.0227   0.0028  -0.0132   0.0165   0.00    0.0
2023/06/15 02:53:30.000   3844059.6309    709661.5765   5023129.6471   6   7   0.0166   0.0406   0.0227   0.0031  -0.0130   0.0165   0.00    0.0
2023/06/15 02:54:00.000   3844059.6308    709661.5756   5023129.6471   6   7   0.0166   0.0404   0.0226   0.0035  -0.0129   0.0165   0.00    0.0
2023/06/15 02:54:30.000   3844059.6306    709661.5746   5023129.6470   6   7   0.0165   0.0402   0.0226   0.0037  -0.0127   0.0164   0.00    0.0
2023/06/15 02:55:00.000   3844059.6304    709661.5739   5023129.6469   6   7   0.0165   0.0400   0.0226   0.0040  -0.0126   0.0164   0.00    0.0
2023/06/15 02:55:30.000   3844059.6303    709661.5730   5023129.6471   6   7   0.0165   0.0398   0.0225   0.0042  -0.0124   0.0164   0.00    0.0
2023/06/15 02:56:00.000   3844059.6302    709661.5733   5023129.6470   6   7   0.0164   0.0396   0.0225   0.0045  -0.0123   0.0163   0.00    0.0
2023/06/15 02:56:30.000   3844059.6302    709661.5734   5023129.6470   6   7   0.0164   0.0394   0.0224   0.0047  -0.0121   0.0163   0.00    0.0
2023/06/15 02:57:00.000   3844059.6302    709661.5733   5023129.6471   6   7   0.0164   0.0392   0.0224   0.0048  -0.0120   0.0163   0.00    0.0
2023/06/15 02:57:30.000   3844059.6301    709661.5734   5023129.6471   6   7   0.0163   0.0390   0.0224   0.0050  -0.0118   0.0162   0.00    0.0
2023/06/15 02:58:00.000   3844059.6299    709661.5734   5023129.6471   6   7   0.0163   0.0388   0.0223   0.0052  -0.0117   0.0162   0.00    0.0
2023/06/15 02:58:30.000   3844059.6297    709661.5733   5023129.6471   6   7   0.0163   0.0386   0.0223   0.0054  -0.0115   0.0161   0.00    0.0
2023/06/15 02:59:00.000   3844059.6296    709661.5728   5023129.6471   6   7   0.0162   0.0384   0.0222   0.0055  -0.0114   0.0161   0.00    0.0
2023/06/15 02:59:30.000   3844059.6295    709661.5727   5023129.6471   6   7   0.0162   0.0382   0.0222   0.0056  -0.0112   0.0161   0.00    0.0
2023/06/15 03:00:00.000   3844059.6294    709661.5723   5023129.6471   6   7   0.0162   0.0381   0.0221   0.0058  -0.0111   0.0160   0.00    0.0
2023/06/15 03:00:30.000   3844059.6293    709661.5721   5023129.6472   6   7   0.0162   0.0379   0.0221   0.0059  -0.0109   0.0160   0.00    0.0
2023/06/15 03:01:00.000   3844059.6293    709661.5721   5023129.6474   6   7   0.0161   0.0377   0.0221   0.0061  -0.0108   0.0160   0.00    0.0
2023/06/15 03:01:30.000   3844059.6294    709661.5720   5023129.6476   6   7   0.0161   0.0375   0.0220   0.0062  -0.0106   0.0160   0.00    0.0
2023/06/15 03:02:00.000   3844059.6295    709661.5719   5023129.6479   6   7   0.0161   0.0374   0.0220   0.0063  -0.0105   0.0159   0.00    0.0
2023/06/15 03:02:30.000   3844059.6296    709661.5716   5023129.6481   6   8   0.0161   0.0372   0.0219   0.0065  -0.0103   0.0159   0.00    0.0
2023/06/15 03:03:00.000   3844059.6297    709661.5713   5023129.6484   6   8   0.0160   0.0370   0.0219   0.0066  -0.0101   0.0159   0.00    0.0
2023/06/15 03:03:30.000   3844059.6299    709661.5710   5023129.6486   6   7   0.0160   0.0369   0.0219   0.0067  -0.0100   0.0159   0.00    0.0
2023/06/15 03:04:00.000   3844059.6300    709661.5712   5023129.6487   6   7   0.0160   0.0367   0.0218   0.0068  -0.0098   0.0158   0.00    0.0
2023/06/15 03:04:30.000   3844059.6300    709661.5711   5023129.6488   6   7   0.0160   0.0365   0.0218   0.0070  -0.0096   0.0158   0.00    0.0
2023/06/15 03:05:00.000   3844059.6301    709661.5709   5023129.6490   6   7   0.0160   0.0364   0.0218   0.0071  -0.0095   0.0158   0.00    0.0
2023/06/15 03:05:30.000   3844059.6303    709661.5707   5023129.6492   6   7   0.0159   0.0362   0.0217   0.0072  -0.0093   0.0158   0.00    0.0
2023/06/15 03:06:00.000   3844059.6303    709661.5711   5023129.6492   6   7   0.0159   0.0361   0.0217   0.0073  -0.0091   0.0157   0.00    0.0
2023/06/15 03:06:30.000   3844059.6302    709661.5715   5023129.6492   6   7   0.0159   0.0359   0.0217   0.0074  -0.0090   0.0157   0.00    0.0
2023/06/15 03:07:00.000   3844059.6301    709661.5719   5023129.6493   6   7   0.0159   0.0358   0.0216   0.0075  -0.0088   0.0157   0.00    0.0
2023/06/15 03:07:30.000   3844059.6302    709661.5720   5023129.6494   6   7   0.0159   0.0356   0.0216   0.0076  -0.0086   0.0157   0.00    0.0
2023/06/15 03:08:00.000   3844059.6301    709661.5724   5023129.6495   6   7   0.0158   0.0355   0.0215   0.0077  -0.0085   0.0156   0.00    0.0
2023/06/15 03:08:30.000   3844059.6301    709661.5730   5023129.6495   6   7   0.0158   0.0353   0.0215   0.0078  -0.0083   0.0156   0.00    0.0
2023/06/15 03:09:00.000   3844059.6301    709661.5733   5023129.6495   6   7   0.0158   0.0352   0.0215   0.0078  -0.0081   0.0156   0.00    0.0
2023/06/15 03:09:30.000   3844059.6301    709661.5733   5023129.6497   6   7   0.0158   0.0350   0.0214   0.0079  -0.0079   0.0156   0.00    0.0
2023/06/15 03:10:00.000   3844059.6301    709661.5731   5023129.6498   6   7   0.0158   0.0349   0.0214   0.0080  -0.0078   0.0155   0.00    0.0
2023/06/15 03:10:30.000   3844059.6302    709661.5729   5023129.6502   6   7   0.0157   0.0347   0.0213   0.0081  -0.0076   0.0155   0.00    0.0
2023/06/15 03:11:00.000   3844059.6303    709661.5730   5023129.6503   6   7   0.0157   0.0346   0.0213   0.0082  -0.0074   0.0155   0.00    0.0
2023/06/15 03:11:30.000   3844059.6304    709661.5729   5023129.6506   6   7   0.0157   0.0345   0.0213   0.0082  -0.0072   0.0155   0.00    0.0
2023/06/15 03:12:00.000   3844059.6305    709661.5726   5023129.6510   6   7   0.0157   0.0343   0.0212   0.0083  -0.0071   0.0154   0.00    0.0
2023/06/15 03:12:30.000   3844059.6306    709661.5720   5023129.6515   6   7   0.0157   0.0342   0.0212   0.0084  -0.0069   0.0154   0.00    0.0
2023/06/15 03:13:00.000   3844059.6307    709661.5718   5023129.6516   6   7   0.0156   0.0340   0.0211   0.0084  -0.0067   0.0154   0.00    0.0
2023/06/15 03:13:30.000   3844059.6307    709661.5718   5023129.6517   6   7   0.0156   0.0339   0.0211   0.0085  -0.0065   0.0154   0.00    0.0
2023/06/15 03:14:00.000   3844059.6308    709661.5714   5023129.6519   6   7   0.0156   0.0338   0.0210   0.0086  -0.0064   0.0153   0.00    0.0
2023/06/15 03:14:30.000   3844059.6309    709661.5713   5023129.6520   6   7   0.0156   0.0337   0.0210   0.0086  -0.0062   0.0153   0.00    0.0
2023/06/15 03:15:00.000   3844059.6310    709661.5707   5023129.6524   6   7   0.0156   0.0335   0.0210   0.0087  -0.0060   0.0153   0.00    0.0
2023/06/15 03:15:30.000   3844059.6312    709661.5700   5023129.6528   6   7   0.0155   0.0334   0.0209   0.0087  -0.0058   0.0152   0.00    0.0
2023/06/15 03:16:00.000   3844059.6313    709661.5692   5023129.6532   6   7   0.0155   0.0333   0.0209   0.0088  -0.0056   0.0152   0.00    0.0
2023/06/15 03:16:30.000   3844059.6313    709661.5691   5023129.6534   6   7   0.0155   0.0331   0.0208   0.0088  -0.0054   0.0152   0.00    0.0
2023/06/15 03:17:00.000   3844059.6313    709661.5687   5023129.6536   6   7   0.0155   0.0330   0.0208   0.0089  -0.0052   0.0152   0.00    0.0
2023/06/15 03:17:30.000   3844059.6313    709661.5685   5023129.6538   6   7   0.0155   0.0329   0.0207   0.0089  -0.0050   0.0151   0.00    0.0
2023/06/15 03:18:00.000   3844059.6314    709661.5685   5023129.6541   6   7   0.0154   0.0328   0.0207   0.0090  -0.0048   0.0151   0.00    0.0
2023/06/15 03:18:30.000   3844059.6315    709661.5682   5023129.6544   6   7   0.0154   0.0326   0.0206   0.0090  -0.0046   0.0151   0.00    0.0
2023/06/15 03:19:00.000   3844059.6316    709661.5682   5023129.6548   6   7   0.0154   0.0325   0.0206   0.0091  -0.0044   0.0150   0.00    0.0
2023/06/15 03:19:30.000   3844059.6317    709661.5684   5023129.6550   6   7   0.0154   0.0324   0.0206   0.0091  -0.0042   0.0150   0.00    0.0
2023/06/15 03:20:00.000   3844059.6318    709661.5685   5023129.6552   6   7   0.0153   0.0323   0.0205   0.0091  -0.0040   0.0150   0.00    0.0
2023/06/15 03:20:30.000   3844059.6319    709661.5685   5023129.6555   6   7   0.0153   0.0322   0.0205   0.0092  -0.0037   0.0149   0.00    0.0
2023/06/15 03:21:00.000   3844059.6319    709661.5686   5023129.6557   6   8   0.0153   0.0321   0.0204   0.0092  -0.0035   0.0149   0.00    0.0
2023/06/15 03:21:30.000   3844059.6321    709661.5687   5023129.6560   6   8   0.0153   0.0319   0.0204   0.0092  -0.0033   0.0149   0.00    0.0
2023/06/15 03:22:00.000   3844059.6322    709661.5686   5023129.6563   6   8   0.0153   0.0318   0.0203   0.0093  -0.0030   0.0149   0.00    0.0
2023/06/15 03:22:30.000   3844059.6323    709661.5685   5023129.6568   6   8   0.0152   0.0317   0.0203   0.0093  -0.0027   0.0148   0.00    0.0
2023/06/15 03:23:00.000   3844059.6324    709661.5686   5023129.6570   6   8   0.0152   0.0316   0.0202   0.0093  -0.0024   0.0148   0.00    0.0
