% program   : RTKLIB ver.2.4.3
% inp file  : /media/david/Passport/HASPPP/ppp_example/Linux/HAS_PPP_OS/obs/*.23o
% inp file  : /media/david/Passport/HASPPP/ppp_example/Linux/HAS_PPP_OS/obs/*.23p
% inp file  : /media/david/Passport/HASPPP/ppp_example/Linux/HAS_PPP_OS/obs/*.HAS
% obs start : 2023/06/15 00:00:00.0 GPST (week2266 345600.0s)
% obs end   : 2023/06/16 23:59:30.0 GPST (week2266 518370.0s)
% pos mode  : PPP Static
% solution  : Forward
% elev mask : 5.0 deg
% dynamics  : off
% tidecorr  : on
% tropo opt : Estimate ZTD
% ephemeris : Broadcast+SSR APC
% navi sys  : GPS Galileo
% antenna1  : LEIAR25.R4      LEIT  ( 0.0000  0.0000  0.0590)
%
% (x/y/z-ecef=WGS84,Q=1:fix,2:float,3:sbas,4:dgps,5:single,6:ppp,ns=# of satellites)
%  GPST                      x-ecef(m)      y-ecef(m)      z-ecef(m)   Q  ns   sdx(m)   sdy(m)   sdz(m)  sdxy(m)  sdyz(m)  sdzx(m) age(s)  ratio
2023/06/15 00:00:00.000   3844059.6716    709661.4403   5023131.1080   6  11   6.0724   3.2186   9.1198  -0.7940  -1.8615   5.7379   0.00    0.0
2023/06/15 00:00:30.000   3844060.0959    709661.6824   5023131.9762   6  11   3.9661   2.2687   5.6182  -0.4196  -1.0786   3.5149   0.00    0.0
2023/06/15 00:01:00.000   3844059.7309    709661.6530   5023131.0675   6  12   2.7415   1.7949   3.6285   0.5648   0.2822   2.1087   0.00    0.0
2023/06/15 00:01:30.000   3844059.6210    709661.5036   5023130.5718   6  12   2.1081   1.5289   2.6616   0.4687   0.4446   1.5205   0.00    0.0
2023/06/15 00:02:00.000   3844059.7826    709661.5234   5023130.0595   6  12   1.6857   1.3466   2.0649   0.3376   0.4413   1.1815   0.00    0.0
2023/06/15 00:02:30.000   3844059.6909    709661.4124   5023129.9285   6  12   1.3835   1.2103   1.6658   0.2033   0.4157   0.9622   0.00    0.0
2023/06/15 00:03:00.000   3844059.6099    709661.4124   5023130.0784   6  12   1.1603   1.1027   1.3858  -0.0601   0.3876   0.8111   0.00    0.0
2023/06/15 00:03:30.000   3844059.7097    709661.5199   5023130.2015   6  12   0.9917   1.0145   1.1822  -0.1728   0.3616   0.7023   0.00    0.0
2023/06/15 00:04:00.000   3844059.6631    709661.5443   5023130.0117   6  12   0.8616   0.9402   1.0296  -0.2103   0.3383   0.6213   0.00    0.0
2023/06/15 00:04:30.000   3844059.6514    709661.5839   5023129.9486   6  12   0.7594   0.8762   0.9121  -0.2265   0.3177   0.5590   0.00    0.0
2023/06/15 00:05:00.000   3844059.5379    709661.5460   5023129.8960   6  12   0.6776   0.8202   0.8194  -0.2321   0.2993   0.5097   0.00    0.0
2023/06/15 00:05:30.000   3844059.6016    709661.5336   5023129.8788   6  12   0.6109   0.7704   0.7445  -0.2320   0.2828   0.4696   0.00    0.0
2023/06/15 00:06:00.000   3844059.6441    709661.5419   5023129.8894   6  12   0.5556   0.7258   0.6825  -0.2285   0.2678   0.4360   0.00    0.0
2023/06/15 00:06:30.000   3844059.6898    709661.5797   5023129.8292   6  12   0.5091   0.6854   0.6302  -0.2230   0.2541   0.4072   0.00    0.0
2023/06/15 00:07:00.000   3844059.7131    709661.5824   5023129.8514   6  12   0.4693   0.6486   0.5851  -0.2164   0.2413   0.3819   0.00    0.0
2023/06/15 00:07:30.000   3844059.6719    709661.6065   5023129.8439   6  13   0.4347   0.6148   0.5456  -0.2093   0.2294   0.3593   0.00    0.0
2023/06/15 00:08:00.000   3844059.6629    709661.6366   5023129.7821   6  13   0.4043   0.5837   0.5102  -0.2020   0.2181   0.3385   0.00    0.0
2023/06/15 00:08:30.000   3844059.6727    709661.6578   5023129.7765   6  13   0.3772   0.5550   0.4780  -0.1948   0.2072   0.3190   0.00    0.0
2023/06/15 00:09:00.000   3844059.6893    709661.6630   5023129.8248   6  13   0.3527   0.5283   0.4482  -0.1879   0.1966   0.3006   0.00    0.0
2023/06/15 00:09:30.000   3844059.6999    709661.6501   5023129.8264   6  13   0.3305   0.5035   0.4205  -0.1813   0.1863   0.2831   0.00    0.0
2023/06/15 00:10:00.000   3844059.7055    709661.6627   5023129.8376   6  13   0.3101   0.4803   0.3946  -0.1751   0.1762   0.2665   0.00    0.0
2023/06/15 00:10:30.000   3844059.6982    709661.6542   5023129.8221   6  13   0.2915   0.4587   0.3706  -0.1692   0.1666   0.2508   0.00    0.0
2023/06/15 00:11:00.000   3844059.6947    709661.6261   5023129.8589   6  13   0.2744   0.4385   0.3482  -0.1635   0.1574   0.2361   0.00    0.0
2023/06/15 00:11:30.000   3844059.6904    709661.6185   5023129.8226   6  13   0.2587   0.4196   0.3274  -0.1581   0.1486   0.2223   0.00    0.0
2023/06/15 00:12:00.000   3844059.6872    709661.6101   5023129.8347   6  13   0.2443   0.4019   0.3082  -0.1529   0.1403   0.2094   0.00    0.0
2023/06/15 00:12:30.000   3844059.6755    709661.6318   5023129.8196   6  13   0.2311   0.3852   0.2904  -0.1480   0.1325   0.1975   0.00    0.0
2023/06/15 00:13:00.000   3844059.6826    709661.6525   5023129.8346   6  13   0.2189   0.3696   0.2740  -0.1432   0.1251   0.1865   0.00    0.0
2023/06/15 00:13:30.000   3844059.6891    709661.6794   5023129.8341   6  13   0.2077   0.3548   0.2589  -0.1385   0.1182   0.1763   0.00    0.0
2023/06/15 00:14:00.000   3844059.6905    709661.6877   5023129.8248   6  13   0.1974   0.3410   0.2450  -0.1341   0.1118   0.1669   0.00    0.0
2023/06/15 00:14:30.000   3844059.6770    709661.6219   5023129.8231   6  13   0.1879   0.3279   0.2322  -0.1298   0.1058   0.1583   0.00    0.0
2023/06/15 00:15:00.000   3844059.6761    709661.6024   5023129.8112   6  13   0.1791   0.3156   0.2204  -0.1256   0.1002   0.1503   0.00    0.0
2023/06/15 00:15:30.000   3844059.6879    709661.6049   5023129.8035   6  13   0.1710   0.3040   0.2094  -0.1217   0.0949   0.1429   0.00    0.0
2023/06/15 00:16:00.000   3844059.6917    709661.5929   5023129.8021   6  13   0.1634   0.2930   0.1993  -0.1178   0.0900   0.1361   0.00    0.0
2023/06/15 00:16:30.000   3844059.6930    709661.5808   5023129.7958   6  13   0.1564   0.2827   0.1900  -0.1142   0.0854   0.1298   0.00    0.0
2023/06/15 00:17:00.000   3844059.6946    709661.5771   5023129.7901   6  13   0.1499   0.2728   0.1813  -0.1106   0.0811   0.1240   0.00    0.0
2023/06/15 00:17:30.000   3844059.6944    709661.5795   5023129.7905   6  13   0.1438   0.2635   0.1732  -0.1072   0.0770   0.1186   0.00    0.0
2023/06/15 00:18:00.000   3844059.7012    709661.5658   5023129.7957   6  13   0.1381   0.2547   0.1658  -0.1040   0.0732   0.1136   0.00    0.0
2023/06/15 00:18:30.000   3844059.7087    709661.5678   5023129.7967   6  13   0.1328   0.2463   0.1588  -0.1009   0.0697   0.1089   0.00    0.0
2023/06/15 00:19:00.000   3844059.7166    709661.5773   5023129.8156   6  13   0.1279   0.2384   0.1523  -0.0979   0.0663   0.1046   0.00    0.0
2023/06/15 00:19:30.000   3844059.7189    709661.5811   5023129.8175   6  13   0.1232   0.2308   0.1462  -0.0950   0.0631   0.1005   0.00    0.0
2023/06/15 00:20:00.000   3844059.7215    709661.5757   5023129.8200   6  13   0.1188   0.2236   0.1404  -0.0922   0.0601   0.0967   0.00    0.0
2023/06/15 00:20:30.000   3844059.7239    709661.5761   5023129.8246   6  13   0.1147   0.2168   0.1351  -0.0896   0.0573   0.0931   0.00    0.0
2023/06/15 00:21:00.000   3844059.7285    709661.5839   5023129.8212   6  13   0.1108   0.2103   0.1301  -0.0870   0.0546   0.0898   0.00    0.0
2023/06/15 00:21:30.000   3844059.7358    709661.5805   5023129.8263   6  13   0.1071   0.2041   0.1253  -0.0846   0.0521   0.0866   0.00    0.0
2023/06/15 00:22:00.000   3844059.7366    709661.5696   5023129.8301   6  13   0.1036   0.1981   0.1209  -0.0823   0.0497   0.0837   0.00    0.0
2023/06/15 00:22:30.000   3844059.7385    709661.5637   5023129.8224   6  13   0.1004   0.1925   0.1167  -0.0800   0.0474   0.0809   0.00    0.0
2023/06/15 00:23:00.000   3844059.7419    709661.5712   5023129.8211   6  13   0.0972   0.1871   0.1127  -0.0779   0.0452   0.0782   0.00    0.0
2023/06/15 00:23:30.000   3844059.7432    709661.5705   5023129.8222   6  13   0.0943   0.1819   0.1090  -0.0758   0.0431   0.0757   0.00    0.0
2023/06/15 00:24:00.000   3844059.7446    709661.5643   5023129.8313   6  13   0.0915   0.1770   0.1054  -0.0738   0.0411   0.0734   0.00    0.0
2023/06/15 00:24:30.000   3844059.7426    709661.5547   5023129.8342   6  13   0.0888   0.1722   0.1020  -0.0719   0.0392   0.0711   0.00    0.0
2023/06/15 00:25:00.000   3844059.7429    709661.5506   5023129.8274   6  13   0.0863   0.1677   0.0988  -0.0701   0.0374   0.0690   0.00    0.0
2023/06/15 00:25:30.000   3844059.7399    709661.5495   5023129.8253   6  13   0.0840   0.1636   0.0959  -0.0686   0.0352   0.0671   0.00    0.0
2023/06/15 00:26:00.000   3844059.7379    709661.5463   5023129.8270   6  14   0.0819   0.1596   0.0931  -0.0671   0.0331   0.0653   0.00    0.0
2023/06/15 00:26:30.000   3844059.7387    709661.5469   5023129.8308   6  14   0.0798   0.1557   0.0904  -0.0657   0.0311   0.0636   0.00    0.0
2023/06/15 00:27:00.000   3844059.7361    709661.5479   5023129.8269   6  14   0.0778   0.1521   0.0881  -0.0642   0.0297   0.0622   0.00    0.0
2023/06/15 00:27:30.000   3844059.7352    709661.5420   5023129.8290   6  14   0.0760   0.1486   0.0858  -0.0628   0.0284   0.0607   0.00    0.0
2023/06/15 00:28:00.000   3844059.7296    709661.5379   5023129.8163   6  14   0.0742   0.1452   0.0837  -0.0614   0.0271   0.0593   0.00    0.0
2023/06/15 00:28:30.000   3844059.7248    709661.5469   5023129.8037   6  14   0.0724   0.1420   0.0816  -0.0600   0.0258   0.0579   0.00    0.0
2023/06/15 00:29:00.000   3844059.7197    709661.5540   5023129.7908   6  14   0.0707   0.1388   0.0795  -0.0587   0.0246   0.0566   0.00    0.0
2023/06/15 00:29:30.000   3844059.7154    709661.5485   5023129.7820   6  14   0.0691   0.1357   0.0776  -0.0574   0.0234   0.0553   0.00    0.0
2023/06/15 00:30:00.000   3844059.7118    709661.5512   5023129.7731   6  14   0.0676   0.1328   0.0757  -0.0562   0.0222   0.0541   0.00    0.0
2023/06/15 00:30:30.000   3844059.7091    709661.5482   5023129.7667   6  14   0.0660   0.1299   0.0738  -0.0550   0.0210   0.0529   0.00    0.0
2023/06/15 00:31:00.000   3844059.7045    709661.5492   5023129.7594   6  14   0.0646   0.1271   0.0721  -0.0538   0.0199   0.0517   0.00    0.0
2023/06/15 00:31:30.000   3844059.7018    709661.5542   5023129.7497   6  14   0.0632   0.1244   0.0704  -0.0527   0.0187   0.0505   0.00    0.0
2023/06/15 00:32:00.000   3844059.6979    709661.5502   5023129.7504   6  13   0.0618   0.1218   0.0687  -0.0516   0.0176   0.0494   0.00    0.0
2023/06/15 00:32:30.000   3844059.6948    709661.5472   5023129.7508   6  13   0.0605   0.1193   0.0671  -0.0505   0.0164   0.0484   0.00    0.0
2023/06/15 00:33:00.000   3844059.6911    709661.5389   5023129.7472   6  13   0.0592   0.1169   0.0656  -0.0495   0.0153   0.0473   0.00    0.0
2023/06/15 00:33:30.000   3844059.6866    709661.5392   5023129.7395   6  13   0.0580   0.1145   0.0641  -0.0485   0.0142   0.0463   0.00    0.0
2023/06/15 00:34:00.000   3844059.6837    709661.5411   5023129.7351   6  13   0.0568   0.1122   0.0626  -0.0476   0.0130   0.0454   0.00    0.0
2023/06/15 00:34:30.000   3844059.6790    709661.5459   5023129.7294   6  13   0.0556   0.1100   0.0612  -0.0466   0.0118   0.0444   0.00    0.0
2023/06/15 00:35:00.000   3844059.6765    709661.5528   5023129.7221   6  13   0.0545   0.1078   0.0599  -0.0457   0.0106   0.0435   0.00    0.0
2023/06/15 00:35:30.000   3844059.6746    709661.5537   5023129.7201   6  12   0.0536   0.1058   0.0588  -0.0449   0.0093   0.0428   0.00    0.0
2023/06/15 00:36:00.000   3844059.6724    709661.5524   5023129.7175   6  13   0.0527   0.1037   0.0577  -0.0440   0.0078   0.0422   0.00    0.0
2023/06/15 00:36:30.000   3844059.6699    709661.5565   5023129.7117   6  13   0.0518   0.1018   0.0567  -0.0432   0.0061   0.0415   0.00    0.0
2023/06/15 00:37:00.000   3844059.6682    709661.5595   5023129.7088   6  13   0.0509   0.0998   0.0557  -0.0424   0.0039   0.0409   0.00    0.0
2023/06/15 00:37:30.000   3844059.6665    709661.5657   5023129.7058   6  13   0.0500   0.0980   0.0547  -0.0417  -0.0022   0.0403   0.00    0.0
2023/06/15 00:38:00.000   3844059.6656    709661.5652   5023129.7038   6  13   0.0492   0.0962   0.0538  -0.0409  -0.0048   0.0397   0.00    0.0
2023/06/15 00:38:30.000   3844059.6643    709661.5682   5023129.7014   6  12   0.0485   0.0944   0.0529  -0.0402  -0.0064   0.0392   0.00    0.0
2023/06/15 00:39:00.000   3844059.6636    709661.5710   5023129.6998   6  12   0.0477   0.0927   0.0520  -0.0395  -0.0076   0.0386   0.00    0.0
2023/06/15 00:39:30.000   3844059.6631    709661.5718   5023129.6975   6  12   0.0470   0.0911   0.0512  -0.0388  -0.0086   0.0381   0.00    0.0
2023/06/15 00:40:00.000   3844059.6625    709661.5736   5023129.6958   6  12   0.0463   0.0895   0.0504  -0.0382  -0.0094   0.0376   0.00    0.0
2023/06/15 00:40:30.000   3844059.6625    709661.5768   5023129.6925   6  12   0.0456   0.0879   0.0496  -0.0375  -0.0100   0.0371   0.00    0.0
2023/06/15 00:41:00.000   3844059.6609    709661.5845   5023129.6893   6  12   0.0450   0.0864   0.0489  -0.0369  -0.0106   0.0367   0.00    0.0
2023/06/15 00:41:30.000   3844059.6602    709661.5888   5023129.6854   6  12   0.0443   0.0849   0.0481  -0.0363  -0.0112   0.0362   0.00    0.0
2023/06/15 00:42:00.000   3844059.6599    709661.5893   5023129.6868   6  12   0.0437   0.0835   0.0474  -0.0357  -0.0116   0.0358   0.00    0.0
2023/06/15 00:42:30.000   3844059.6603    709661.5888   5023129.6866   6  12   0.0431   0.0821   0.0467  -0.0351  -0.0120   0.0354   0.00    0.0
2023/06/15 00:43:00.000   3844059.6594    709661.5913   5023129.6861   6  12   0.0425   0.0807   0.0461  -0.0346  -0.0124   0.0349   0.00    0.0
2023/06/15 00:43:30.000   3844059.6598    709661.5924   5023129.6867   6  12   0.0420   0.0794   0.0454  -0.0340  -0.0127   0.0345   0.00    0.0
2023/06/15 00:44:00.000   3844059.6599    709661.5922   5023129.6865   6  12   0.0414   0.0781   0.0448  -0.0335  -0.0130   0.0342   0.00    0.0
2023/06/15 00:44:30.000   3844059.6597    709661.5922   5023129.6851   6  12   0.0409   0.0768   0.0442  -0.0330  -0.0132   0.0338   0.00    0.0
2023/06/15 00:45:00.000   3844059.6601    709661.5928   5023129.6853   6  12   0.0404   0.0756   0.0436  -0.0325  -0.0135   0.0334   0.00    0.0
2023/06/15 00:45:30.000   3844059.6603    709661.5941   5023129.6871   6  12   0.0399   0.0744   0.0430  -0.0320  -0.0137   0.0331   0.00    0.0
2023/06/15 00:46:00.000   3844059.6608    709661.5940   5023129.6893   6  12   0.0394   0.0732   0.0425  -0.0315  -0.0139   0.0327   0.00    0.0
2023/06/15 00:46:30.000   3844059.6624    709661.5931   5023129.6906   6  12   0.0389   0.0721   0.0419  -0.0310  -0.0140   0.0324   0.00    0.0
2023/06/15 00:47:00.000   3844059.6627    709661.5930   5023129.6915   6  12   0.0385   0.0710   0.0414  -0.0306  -0.0142   0.0320   0.00    0.0
2023/06/15 00:47:30.000   3844059.6636    709661.5936   5023129.6898   6  12   0.0380   0.0699   0.0409  -0.0301  -0.0143   0.0317   0.00    0.0
2023/06/15 00:48:00.000   3844059.6647    709661.5938   5023129.6922   6  12   0.0376   0.0689   0.0404  -0.0297  -0.0144   0.0314   0.00    0.0
2023/06/15 00:48:30.000   3844059.6651    709661.5938   5023129.6933   6  12   0.0372   0.0678   0.0399  -0.0293  -0.0145   0.0311   0.00    0.0
2023/06/15 00:49:00.000   3844059.6661    709661.5921   5023129.6971   6  12   0.0368   0.0668   0.0395  -0.0288  -0.0146   0.0308   0.00    0.0
2023/06/15 00:49:30.000   3844059.6671    709661.5932   5023129.6982   6  12   0.0364   0.0658   0.0390  -0.0284  -0.0147   0.0305   0.00    0.0
2023/06/15 00:50:00.000   3844059.6680    709661.5933   5023129.6988   6  12   0.0360   0.0649   0.0386  -0.0280  -0.0148   0.0302   0.00    0.0
2023/06/15 00:50:30.000   3844059.6682    709661.5963   5023129.6985   6  12   0.0356   0.0639   0.0381  -0.0277  -0.0148   0.0300   0.00    0.0
2023/06/15 00:51:00.000   3844059.6684    709661.6005   5023129.6975   6  12   0.0352   0.0630   0.0377  -0.0273  -0.0149   0.0297   0.00    0.0
2023/06/15 00:51:30.000   3844059.6692    709661.5995   5023129.6987   6  12   0.0349   0.0621   0.0373  -0.0269  -0.0149   0.0294   0.00    0.0
2023/06/15 00:52:00.000   3844059.6692    709661.6016   5023129.6988   6  12   0.0345   0.0613   0.0369  -0.0265  -0.0149   0.0292   0.00    0.0
2023/06/15 00:52:30.000   3844059.6691    709661.6031   5023129.6998   6  12   0.0342   0.0604   0.0365  -0.0262  -0.0150   0.0290   0.00    0.0
2023/06/15 00:53:00.000   3844059.6690    709661.6019   5023129.7009   6  12   0.0339   0.0596   0.0362  -0.0258  -0.0150   0.0287   0.00    0.0
2023/06/15 00:53:30.000   3844059.6689    709661.6016   5023129.7011   6  12   0.0335   0.0588   0.0358  -0.0255  -0.0150   0.0285   0.00    0.0
2023/06/15 00:54:00.000   3844059.6691    709661.6028   5023129.7016   6  12   0.0332   0.0580   0.0354  -0.0252  -0.0150   0.0283   0.00    0.0
2023/06/15 00:54:30.000   3844059.6692    709661.6034   5023129.7022   6  11   0.0329   0.0573   0.0352  -0.0249  -0.0152   0.0280   0.00    0.0
2023/06/15 00:55:00.000   3844059.6696    709661.6033   5023129.7023   6  11   0.0326   0.0566   0.0349  -0.0246  -0.0154   0.0278   0.00    0.0
2023/06/15 00:55:30.000   3844059.6668    709661.6093   5023129.6988   6  11   0.0323   0.0559   0.0346  -0.0243  -0.0156   0.0276   0.00    0.0
2023/06/15 00:56:00.000   3844059.6654    709661.6115   5023129.6968   6  10   0.0321   0.0553   0.0344  -0.0240  -0.0157   0.0274   0.00    0.0
2023/06/15 00:56:30.000   3844059.6643    709661.6155   5023129.6955   6  11   0.0318   0.0546   0.0341  -0.0237  -0.0158   0.0272   0.00    0.0
2023/06/15 00:57:00.000   3844059.6636    709661.6187   5023129.6952   6  12   0.0315   0.0540   0.0339  -0.0234  -0.0159   0.0271   0.00    0.0
2023/06/15 00:57:30.000   3844059.6630    709661.6207   5023129.6943   6  12   0.0312   0.0533   0.0336  -0.0232  -0.0161   0.0269   0.00    0.0
2023/06/15 00:58:00.000   3844059.6617    709661.6225   5023129.6920   6  11   0.0310   0.0527   0.0334  -0.0229  -0.0162   0.0267   0.00    0.0
2023/06/15 00:58:30.000   3844059.6605    709661.6250   5023129.6900   6  11   0.0307   0.0521   0.0331  -0.0227  -0.0163   0.0265   0.00    0.0
2023/06/15 00:59:00.000   3844059.6593    709661.6273   5023129.6887   6  11   0.0305   0.0515   0.0329  -0.0224  -0.0163   0.0264   0.00    0.0
2023/06/15 00:59:30.000   3844059.6580    709661.6308   5023129.6879   6  11   0.0303   0.0509   0.0327  -0.0222  -0.0164   0.0262   0.00    0.0
2023/06/15 01:00:00.000   3844059.6571    709661.6341   5023129.6874   6  11   0.0300   0.0503   0.0325  -0.0219  -0.0165   0.0260   0.00    0.0
2023/06/15 01:00:30.000   3844059.6567    709661.6371   5023129.6872   6  11   0.0298   0.0498   0.0323  -0.0217  -0.0165   0.0259   0.00    0.0
2023/06/15 01:01:00.000   3844059.6551    709661.6392   5023129.6855   6  12   0.0296   0.0492   0.0321  -0.0215  -0.0166   0.0257   0.00    0.0
2023/06/15 01:01:30.000   3844059.6541    709661.6418   5023129.6847   6  12   0.0294   0.0487   0.0318  -0.0212  -0.0166   0.0256   0.00    0.0
2023/06/15 01:02:00.000   3844059.6532    709661.6442   5023129.6830   6  12   0.0291   0.0481   0.0316  -0.0210  -0.0167   0.0254   0.00    0.0
2023/06/15 01:02:30.000   3844059.6517    709661.6462   5023129.6806   6  12   0.0289   0.0476   0.0315  -0.0208  -0.0167   0.0253   0.00    0.0
2023/06/15 01:03:00.000   3844059.6512    709661.6485   5023129.6801   6  12   0.0287   0.0471   0.0313  -0.0206  -0.0167   0.0251   0.00    0.0
2023/06/15 01:03:30.000   3844059.6505    709661.6518   5023129.6790   6  12   0.0285   0.0466   0.0311  -0.0204  -0.0167   0.0250   0.00    0.0
2023/06/15 01:04:00.000   3844059.6493    709661.6547   5023129.6777   6  13   0.0283   0.0461   0.0309  -0.0202  -0.0167   0.0249   0.00    0.0
2023/06/15 01:04:30.000   3844059.6486    709661.6574   5023129.6775   6  13   0.0281   0.0456   0.0307  -0.0200  -0.0167   0.0247   0.00    0.0
2023/06/15 01:05:00.000   3844059.6476    709661.6600   5023129.6763   6  13   0.0280   0.0451   0.0305  -0.0198  -0.0167   0.0246   0.00    0.0
2023/06/15 01:05:30.000   3844059.6469    709661.6616   5023129.6752   6  13   0.0278   0.0446   0.0304  -0.0196  -0.0167   0.0245   0.00    0.0
2023/06/15 01:06:00.000   3844059.6467    709661.6624   5023129.6749   6  13   0.0276   0.0441   0.0302  -0.0194  -0.0167   0.0243   0.00    0.0
2023/06/15 01:06:30.000   3844059.6463    709661.6629   5023129.6749   6  13   0.0274   0.0437   0.0300  -0.0192  -0.0167   0.0242   0.00    0.0
2023/06/15 01:07:00.000   3844059.6458    709661.6640   5023129.6742   6  13   0.0272   0.0432   0.0299  -0.0190  -0.0167   0.0241   0.00    0.0
2023/06/15 01:07:30.000   3844059.6455    709661.6656   5023129.6744   6  13   0.0271   0.0428   0.0297  -0.0189  -0.0167   0.0240   0.00    0.0
2023/06/15 01:08:00.000   3844059.6456    709661.6658   5023129.6741   6  13   0.0269   0.0423   0.0296  -0.0187  -0.0167   0.0239   0.00    0.0
2023/06/15 01:08:30.000   3844059.6451    709661.6664   5023129.6730   6  13   0.0267   0.0419   0.0294  -0.0185  -0.0166   0.0237   0.00    0.0
2023/06/15 01:09:00.000   3844059.6446    709661.6673   5023129.6722   6  13   0.0266   0.0415   0.0292  -0.0184  -0.0166   0.0236   0.00    0.0
2023/06/15 01:09:30.000   3844059.6440    709661.6685   5023129.6716   6  13   0.0264   0.0410   0.0291  -0.0182  -0.0166   0.0235   0.00    0.0
2023/06/15 01:10:00.000   3844059.6438    709661.6702   5023129.6709   6  13   0.0262   0.0406   0.0289  -0.0180  -0.0165   0.0234   0.00    0.0
2023/06/15 01:10:30.000   3844059.6436    709661.6712   5023129.6702   6  13   0.0261   0.0402   0.0288  -0.0179  -0.0165   0.0233   0.00    0.0
2023/06/15 01:11:00.000   3844059.6432    709661.6720   5023129.6693   6  13   0.0259   0.0398   0.0286  -0.0177  -0.0165   0.0232   0.00    0.0
2023/06/15 01:11:30.000   3844059.6430    709661.6724   5023129.6690   6  13   0.0258   0.0394   0.0285  -0.0176  -0.0164   0.0230   0.00    0.0
2023/06/15 01:12:00.000   3844059.6427    709661.6724   5023129.6689   6  13   0.0256   0.0390   0.0283  -0.0174  -0.0164   0.0229   0.00    0.0
2023/06/15 01:12:30.000   3844059.6424    709661.6728   5023129.6682   6  13   0.0255   0.0386   0.0282  -0.0173  -0.0163   0.0228   0.00    0.0
2023/06/15 01:13:00.000   3844059.6427    709661.6705   5023129.6692   6  13   0.0253   0.0383   0.0280  -0.0171  -0.0163   0.0227   0.00    0.0
2023/06/15 01:13:30.000   3844059.6425    709661.6702   5023129.6701   6  13   0.0252   0.0379   0.0279  -0.0170  -0.0162   0.0226   0.00    0.0
2023/06/15 01:14:00.000   3844059.6426    709661.6698   5023129.6707   6  13   0.0250   0.0375   0.0278  -0.0169  -0.0162   0.0225   0.00    0.0
2023/06/15 01:14:30.000   3844059.6421    709661.6697   5023129.6701   6  13   0.0249   0.0372   0.0276  -0.0167  -0.0161   0.0224   0.00    0.0
2023/06/15 01:15:00.000   3844059.6422    709661.6695   5023129.6706   6  13   0.0248   0.0368   0.0275  -0.0166  -0.0161   0.0223   0.00    0.0
2023/06/15 01:15:30.000   3844059.6426    709661.6680   5023129.6715   6  13   0.0246   0.0365   0.0273  -0.0165  -0.0160   0.0222   0.00    0.0
2023/06/15 01:16:00.000   3844059.6422    709661.6674   5023129.6712   6  13   0.0245   0.0361   0.0272  -0.0163  -0.0160   0.0221   0.00    0.0
2023/06/15 01:16:30.000   3844059.6421    709661.6661   5023129.6717   6  13   0.0243   0.0358   0.0271  -0.0162  -0.0159   0.0220   0.00    0.0
2023/06/15 01:17:00.000   3844059.6418    709661.6661   5023129.6714   6  13   0.0242   0.0354   0.0269  -0.0161  -0.0158   0.0219   0.00    0.0
2023/06/15 01:17:30.000   3844059.6423    709661.6650   5023129.6721   6  13   0.0241   0.0351   0.0268  -0.0159  -0.0158   0.0218   0.00    0.0
2023/06/15 01:18:00.000   3844059.6425    709661.6646   5023129.6728   6  13   0.0239   0.0348   0.0267  -0.0158  -0.0157   0.0216   0.00    0.0
2023/06/15 01:18:30.000   3844059.6423    709661.6646   5023129.6731   6  13   0.0238   0.0345   0.0265  -0.0157  -0.0156   0.0215   0.00    0.0
2023/06/15 01:19:00.000   3844059.6421    709661.6659   5023129.6725   6  13   0.0237   0.0341   0.0264  -0.0156  -0.0156   0.0214   0.00    0.0
2023/06/15 01:19:30.000   3844059.6415    709661.6658   5023129.6715   6  13   0.0236   0.0338   0.0263  -0.0155  -0.0155   0.0213   0.00    0.0
2023/06/15 01:20:00.000   3844059.6417    709661.6627   5023129.6720   6  13   0.0234   0.0335   0.0261  -0.0153  -0.0154   0.0212   0.00    0.0
2023/06/15 01:20:30.000   3844059.6414    709661.6613   5023129.6725   6  13   0.0233   0.0332   0.0260  -0.0152  -0.0154   0.0211   0.00    0.0
2023/06/15 01:21:00.000   3844059.6409    709661.6605   5023129.6719   6  13   0.0232   0.0329   0.0259  -0.0151  -0.0153   0.0210   0.00    0.0
2023/06/15 01:21:30.000   3844059.6411    709661.6616   5023129.6724   6  13   0.0231   0.0326   0.0257  -0.0150  -0.0152   0.0209   0.00    0.0
2023/06/15 01:22:00.000   3844059.6416    709661.6610   5023129.6731   6  13   0.0229   0.0323   0.0256  -0.0149  -0.0152   0.0208   0.00    0.0
2023/06/15 01:22:30.000   3844059.6420    709661.6609   5023129.6740   6  13   0.0228   0.0321   0.0255  -0.0148  -0.0151   0.0207   0.00    0.0
2023/06/15 01:23:00.000   3844059.6419    709661.6599   5023129.6740   6  13   0.0227   0.0318   0.0253  -0.0147  -0.0150   0.0206   0.00    0.0
2023/06/15 01:23:30.000   3844059.6416    709661.6599   5023129.6740   6  13   0.0226   0.0315   0.0252  -0.0146  -0.0149   0.0205   0.00    0.0
2023/06/15 01:24:00.000   3844059.6414    709661.6597   5023129.6736   6  13   0.0225   0.0312   0.0251  -0.0145  -0.0149   0.0204   0.00    0.0
2023/06/15 01:24:30.000   3844059.6411    709661.6594   5023129.6733   6  13   0.0223   0.0310   0.0250  -0.0144  -0.0148   0.0203   0.00    0.0
2023/06/15 01:25:00.000   3844059.6409    709661.6585   5023129.6725   6  13   0.0222   0.0307   0.0248  -0.0143  -0.0147   0.0202   0.00    0.0
2023/06/15 01:25:30.000   3844059.6407    709661.6573   5023129.6725   6  13   0.0221   0.0304   0.0247  -0.0142  -0.0147   0.0201   0.00    0.0
2023/06/15 01:26:00.000   3844059.6405    709661.6583   5023129.6738   6  15   0.0220   0.0302   0.0246  -0.0141  -0.0146   0.0201   0.00    0.0
2023/06/15 01:26:30.000   3844059.6404    709661.6594   5023129.6746   6  15   0.0219   0.0299   0.0245  -0.0140  -0.0145   0.0200   0.00    0.0
2023/06/15 01:27:00.000   3844059.6403    709661.6592   5023129.6755   6  15   0.0218   0.0297   0.0244  -0.0139  -0.0144   0.0199   0.00    0.0
2023/06/15 01:27:30.000   3844059.6406    709661.6587   5023129.6773   6  15   0.0217   0.0294   0.0242  -0.0138  -0.0144   0.0198   0.00    0.0
2023/06/15 01:28:00.000   3844059.6408    709661.6580   5023129.6789   6  15   0.0216   0.0292   0.0241  -0.0137  -0.0143   0.0197   0.00    0.0
2023/06/15 01:28:30.000   3844059.6412    709661.6573   5023129.6803   6  15   0.0214   0.0289   0.0240  -0.0136  -0.0142   0.0196   0.00    0.0
2023/06/15 01:29:00.000   3844059.6421    709661.6585   5023129.6824   6  15   0.0213   0.0287   0.0239  -0.0135  -0.0141   0.0195   0.00    0.0
2023/06/15 01:29:30.000   3844059.6428    709661.6598   5023129.6842   6  15   0.0212   0.0284   0.0238  -0.0134  -0.0141   0.0194   0.00    0.0
2023/06/15 01:30:00.000   3844059.6431    709661.6603   5023129.6852   6  15   0.0211   0.0282   0.0236  -0.0133  -0.0140   0.0193   0.00    0.0
2023/06/15 01:30:30.000   3844059.6433    709661.6607   5023129.6863   6  15   0.0210   0.0280   0.0235  -0.0133  -0.0139   0.0192   0.00    0.0
2023/06/15 01:31:00.000   3844059.6437    709661.6594   5023129.6877   6  15   0.0209   0.0278   0.0234  -0.0132  -0.0139   0.0191   0.00    0.0
2023/06/15 01:31:30.000   3844059.6440    709661.6595   5023129.6890   6  15   0.0208   0.0275   0.0233  -0.0131  -0.0138   0.0190   0.00    0.0
2023/06/15 01:32:00.000   3844059.6447    709661.6589   5023129.6910   6  15   0.0207   0.0273   0.0232  -0.0130  -0.0137   0.0189   0.00    0.0
2023/06/15 01:32:30.000   3844059.6451    709661.6590   5023129.6926   6  15   0.0206   0.0271   0.0231  -0.0129  -0.0136   0.0188   0.00    0.0
2023/06/15 01:33:00.000   3844059.6453    709661.6592   5023129.6939   6  15   0.0205   0.0269   0.0229  -0.0128  -0.0136   0.0188   0.00    0.0
2023/06/15 01:33:30.000   3844059.6449    709661.6576   5023129.6945   6  15   0.0204   0.0267   0.0228  -0.0128  -0.0135   0.0187   0.00    0.0
2023/06/15 01:34:00.000   3844059.6447    709661.6583   5023129.6949   6  15   0.0203   0.0265   0.0227  -0.0127  -0.0134   0.0186   0.00    0.0
2023/06/15 01:34:30.000   3844059.6452    709661.6584   5023129.6964   6  15   0.0202   0.0263   0.0226  -0.0126  -0.0134   0.0185   0.00    0.0
2023/06/15 01:35:00.000   3844059.6455    709661.6588   5023129.6977   6  15   0.0201   0.0261   0.0225  -0.0125  -0.0133   0.0184   0.00    0.0
2023/06/15 01:35:30.000   3844059.6461    709661.6583   5023129.6993   6  15   0.0200   0.0259   0.0224  -0.0125  -0.0132   0.0183   0.00    0.0
2023/06/15 01:36:00.000   3844059.6468    709661.6576   5023129.7007   6  15   0.0199   0.0257   0.0223  -0.0124  -0.0132   0.0182   0.00    0.0
2023/06/15 01:36:30.000   3844059.6470    709661.6572   5023129.7019   6  15   0.0198   0.0255   0.0222  -0.0123  -0.0131   0.0181   0.00    0.0
2023/06/15 01:37:00.000   3844059.6470    709661.6564   5023129.7030   6  15   0.0197   0.0253   0.0221  -0.0122  -0.0130   0.0180   0.00    0.0
2023/06/15 01:37:30.000   3844059.6475    709661.6555   5023129.7042   6  15   0.0196   0.0251   0.0219  -0.0122  -0.0129   0.0180   0.00    0.0
2023/06/15 01:38:00.000   3844059.6477    709661.6557   5023129.7050   6  15   0.0196   0.0249   0.0218  -0.0121  -0.0129   0.0179   0.00    0.0
2023/06/15 01:38:30.000   3844059.6478    709661.6551   5023129.7061   6  15   0.0195   0.0247   0.0217  -0.0120  -0.0128   0.0178   0.00    0.0
2023/06/15 01:39:00.000   3844059.6480    709661.6553   5023129.7070   6  15   0.0194   0.0245   0.0216  -0.0120  -0.0127   0.0177   0.00    0.0
2023/06/15 01:39:30.000   3844059.6482    709661.6549   5023129.7079   6  15   0.0193   0.0244   0.0215  -0.0119  -0.0127   0.0176   0.00    0.0
2023/06/15 01:40:00.000   3844059.6484    709661.6545   5023129.7089   6  15   0.0192   0.0242   0.0214  -0.0118  -0.0126   0.0175   0.00    0.0
2023/06/15 01:40:30.000   3844059.6486    709661.6543   5023129.7098   6  15   0.0191   0.0240   0.0213  -0.0118  -0.0126   0.0175   0.00    0.0
2023/06/15 01:41:00.000   3844059.6490    709661.6544   5023129.7109   6  15   0.0190   0.0238   0.0212  -0.0117  -0.0125   0.0174   0.00    0.0
2023/06/15 01:41:30.000   3844059.6495    709661.6538   5023129.7123   6  15   0.0189   0.0237   0.0211  -0.0117  -0.0124   0.0173   0.00    0.0
2023/06/15 01:42:00.000   3844059.6496    709661.6532   5023129.7128   6  15   0.0188   0.0235   0.0210  -0.0116  -0.0124   0.0172   0.00    0.0
2023/06/15 01:42:30.000   3844059.6496    709661.6526   5023129.7131   6  15   0.0187   0.0233   0.0209  -0.0115  -0.0123   0.0171   0.00    0.0
2023/06/15 01:43:00.000   3844059.6496    709661.6522   5023129.7134   6  15   0.0187   0.0232   0.0208  -0.0115  -0.0122   0.0170   0.00    0.0
2023/06/15 01:43:30.000   3844059.6502    709661.6520   5023129.7146   6  15   0.0186   0.0230   0.0207  -0.0114  -0.0122   0.0170   0.00    0.0
2023/06/15 01:44:00.000   3844059.6509    709661.6512   5023129.7157   6  15   0.0185   0.0229   0.0206  -0.0114  -0.0121   0.0169   0.00    0.0
2023/06/15 01:44:30.000   3844059.6512    709661.6511   5023129.7162   6  15   0.0184   0.0227   0.0205  -0.0113  -0.0120   0.0168   0.00    0.0
2023/06/15 01:45:00.000   3844059.6517    709661.6508   5023129.7169   6  15   0.0183   0.0225   0.0204  -0.0112  -0.0120   0.0167   0.00    0.0
2023/06/15 01:45:30.000   3844059.6519    709661.6503   5023129.7172   6  14   0.0182   0.0224   0.0203  -0.0112  -0.0119   0.0166   0.00    0.0
2023/06/15 01:46:00.000   3844059.6524    709661.6499   5023129.7183   6  14   0.0182   0.0222   0.0202  -0.0111  -0.0119   0.0166   0.00    0.0
2023/06/15 01:46:30.000   3844059.6528    709661.6492   5023129.7191   6  14   0.0181   0.0221   0.0201  -0.0111  -0.0118   0.0165   0.00    0.0
2023/06/15 01:47:00.000   3844059.6533    709661.6484   5023129.7200   6  14   0.0180   0.0220   0.0200  -0.0110  -0.0118   0.0164   0.00    0.0
2023/06/15 01:47:30.000   3844059.6534    709661.6479   5023129.7200   6  14   0.0180   0.0218   0.0200  -0.0110  -0.0117   0.0164   0.00    0.0
2023/06/15 01:48:00.000   3844059.6537    709661.6473   5023129.7204   6  14   0.0179   0.0217   0.0199  -0.0109  -0.0117   0.0163   0.00    0.0
2023/06/15 01:48:30.000   3844059.6542    709661.6467   5023129.7211   6  14   0.0178   0.0215   0.0198  -0.0109  -0.0116   0.0162   0.00    0.0
2023/06/15 01:49:00.000   3844059.6546    709661.6465   5023129.7216   6  14   0.0177   0.0214   0.0197  -0.0108  -0.0115   0.0162   0.00    0.0
2023/06/15 01:49:30.000   3844059.6548    709661.6471   5023129.7213   6  15   0.0177   0.0212   0.0196  -0.0108  -0.0115   0.0161   0.00    0.0
2023/06/15 01:50:00.000   3844059.6553    709661.6471   5023129.7218   6  15   0.0176   0.0211   0.0195  -0.0107  -0.0114   0.0160   0.00    0.0
2023/06/15 01:50:30.000   3844059.6556    709661.6466   5023129.7223   6  15   0.0175   0.0210   0.0195  -0.0107  -0.0114   0.0160   0.00    0.0
2023/06/15 01:51:00.000   3844059.6560    709661.6465   5023129.7226   6  15   0.0175   0.0208   0.0194  -0.0107  -0.0113   0.0159   0.00    0.0
2023/06/15 01:51:30.000   3844059.6561    709661.6462   5023129.7227   6  15   0.0174   0.0207   0.0193  -0.0106  -0.0113   0.0158   0.00    0.0
2023/06/15 01:52:00.000   3844059.6562    709661.6457   5023129.7228   6  15   0.0173   0.0206   0.0192  -0.0106  -0.0112   0.0158   0.00    0.0
2023/06/15 01:52:30.000   3844059.6564    709661.6449   5023129.7230   6  15   0.0172   0.0205   0.0191  -0.0105  -0.0112   0.0157   0.00    0.0
2023/06/15 01:53:00.000   3844059.6566    709661.6443   5023129.7236   6  15   0.0172   0.0203   0.0191  -0.0105  -0.0111   0.0156   0.00    0.0
2023/06/15 01:53:30.000   3844059.6567    709661.6443   5023129.7239   6  15   0.0171   0.0202   0.0190  -0.0104  -0.0111   0.0156   0.00    0.0
2023/06/15 01:54:00.000   3844059.6571    709661.6437   5023129.7243   6  15   0.0170   0.0201   0.0189  -0.0104  -0.0110   0.0155   0.00    0.0
2023/06/15 01:54:30.000   3844059.6576    709661.6430   5023129.7253   6  15   0.0170   0.0200   0.0188  -0.0103  -0.0109   0.0155   0.00    0.0
2023/06/15 01:55:00.000   3844059.6575    709661.6427   5023129.7253   6  15   0.0169   0.0199   0.0188  -0.0103  -0.0109   0.0154   0.00    0.0
2023/06/15 01:55:30.000   3844059.6579    709661.6415   5023129.7259   6  15   0.0168   0.0197   0.0187  -0.0102  -0.0108   0.0153   0.00    0.0
2023/06/15 01:56:00.000   3844059.6579    709661.6412   5023129.7259   6  15   0.0168   0.0196   0.0186  -0.0102  -0.0108   0.0153   0.00    0.0
2023/06/15 01:56:30.000   3844059.6578    709661.6408   5023129.7254   6  14   0.0167   0.0195   0.0186  -0.0101  -0.0107   0.0152   0.00    0.0
2023/06/15 01:57:00.000   3844059.6575    709661.6402   5023129.7251   6  14   0.0167   0.0194   0.0185  -0.0101  -0.0106   0.0152   0.00    0.0
2023/06/15 01:57:30.000   3844059.6572    709661.6402   5023129.7244   6  14   0.0166   0.0193   0.0184  -0.0100  -0.0106   0.0151   0.00    0.0
2023/06/15 01:58:00.000   3844059.6575    709661.6395   5023129.7248   6  14   0.0166   0.0192   0.0184  -0.0100  -0.0105   0.0151   0.00    0.0
2023/06/15 01:58:30.000   3844059.6575    709661.6393   5023129.7248   6  13   0.0165   0.0191   0.0183  -0.0099  -0.0105   0.0150   0.00    0.0
2023/06/15 01:59:00.000   3844059.6572    709661.6389   5023129.7242   6  13   0.0164   0.0190   0.0183  -0.0099  -0.0104   0.0150   0.00    0.0
2023/06/15 01:59:30.000   3844059.6571    709661.6388   5023129.7239   6  13   0.0164   0.0189   0.0182  -0.0098  -0.0103   0.0150   0.00    0.0
2023/06/15 02:00:00.000   3844059.6574    709661.6381   5023129.7245   6  14   0.0163   0.0188   0.0182  -0.0098  -0.0103   0.0149   0.00    0.0
2023/06/15 02:00:30.000   3844059.6577    709661.6371   5023129.7249   6  14   0.0163   0.0187   0.0181  -0.0097  -0.0102   0.0149   0.00    0.0
2023/06/15 02:01:00.000   3844059.6579    709661.6374   5023129.7250   6  14   0.0162   0.0186   0.0181  -0.0097  -0.0101   0.0148   0.00    0.0
2023/06/15 02:01:30.000   3844059.6579    709661.6373   5023129.7248   6  14   0.0162   0.0185   0.0180  -0.0097  -0.0101   0.0148   0.00    0.0
2023/06/15 02:02:00.000   3844059.6580    709661.6376   5023129.7248   6  14   0.0161   0.0184   0.0180  -0.0096  -0.0100   0.0147   0.00    0.0
2023/06/15 02:02:30.000   3844059.6582    709661.6374   5023129.7248   6  14   0.0161   0.0183   0.0179  -0.0096  -0.0100   0.0147   0.00    0.0
2023/06/15 02:03:00.000   3844059.6585    709661.6371   5023129.7249   6  14   0.0160   0.0182   0.0179  -0.0095  -0.0099   0.0146   0.00    0.0
2023/06/15 02:03:30.000   3844059.6588    709661.6364   5023129.7253   6  14   0.0160   0.0181   0.0178  -0.0095  -0.0098   0.0146   0.00    0.0
2023/06/15 02:04:00.000   3844059.6590    709661.6366   5023129.7254   6  14   0.0159   0.0180   0.0178  -0.0094  -0.0098   0.0146   0.00    0.0
2023/06/15 02:04:30.000   3844059.6591    709661.6357   5023129.7258   6  14   0.0159   0.0179   0.0177  -0.0094  -0.0097   0.0145   0.00    0.0
2023/06/15 02:05:00.000   3844059.6593    709661.6352   5023129.7261   6  14   0.0158   0.0178   0.0177  -0.0093  -0.0096   0.0145   0.00    0.0
2023/06/15 02:05:30.000   3844059.6592    709661.6352   5023129.7258   6  14   0.0158   0.0177   0.0176  -0.0093  -0.0096   0.0144   0.00    0.0
2023/06/15 02:06:00.000   3844059.6590    709661.6355   5023129.7252   6  15   0.0157   0.0176   0.0176  -0.0092  -0.0095   0.0144   0.00    0.0
2023/06/15 02:06:30.000   3844059.6591    709661.6362   5023129.7248   6  15   0.0157   0.0175   0.0175  -0.0092  -0.0095   0.0143   0.00    0.0
2023/06/15 02:07:00.000   3844059.6594    709661.6352   5023129.7252   6  15   0.0156   0.0175   0.0175  -0.0092  -0.0094   0.0143   0.00    0.0
2023/06/15 02:07:30.000   3844059.6597    709661.6348   5023129.7258   6  15   0.0156   0.0174   0.0174  -0.0091  -0.0093   0.0143   0.00    0.0
2023/06/15 02:08:00.000   3844059.6597    709661.6346   5023129.7258   6  16   0.0155   0.0173   0.0174  -0.0091  -0.0093   0.0142   0.00    0.0
2023/06/15 02:08:30.000   3844059.6598    709661.6343   5023129.7260   6  16   0.0155   0.0172   0.0174  -0.0090  -0.0092   0.0142   0.00    0.0
2023/06/15 02:09:00.000   3844059.6599    709661.6346   5023129.7261   6  16   0.0154   0.0171   0.0173  -0.0090  -0.0091   0.0141   0.00    0.0
2023/06/15 02:09:30.000   3844059.6598    709661.6346   5023129.7257   6  16   0.0154   0.0171   0.0173  -0.0089  -0.0091   0.0141   0.00    0.0
2023/06/15 02:10:00.000   3844059.6600    709661.6344   5023129.7259   6  16   0.0153   0.0170   0.0172  -0.0089  -0.0090   0.0140   0.00    0.0
2023/06/15 02:10:30.000   3844059.6601    709661.6345   5023129.7256   6  16   0.0153   0.0169   0.0172  -0.0089  -0.0090   0.0140   0.00    0.0
2023/06/15 02:11:00.000   3844059.6603    709661.6345   5023129.7259   6  16   0.0152   0.0168   0.0171  -0.0088  -0.0089   0.0140   0.00    0.0
2023/06/15 02:11:30.000   3844059.6602    709661.6344   5023129.7257   6  16   0.0152   0.0167   0.0171  -0.0088  -0.0089   0.0139   0.00    0.0
2023/06/15 02:12:00.000   3844059.6602    709661.6341   5023129.7259   6  16   0.0151   0.0167   0.0170  -0.0087  -0.0088   0.0139   0.00    0.0
2023/06/15 02:12:30.000   3844059.6602    709661.6339   5023129.7260   6  16   0.0151   0.0166   0.0170  -0.0087  -0.0087   0.0138   0.00    0.0
2023/06/15 02:13:00.000   3844059.6600    709661.6337   5023129.7257   6  16   0.0150   0.0165   0.0169  -0.0087  -0.0087   0.0138   0.00    0.0
2023/06/15 02:13:30.000   3844059.6603    709661.6328   5023129.7264   6  16   0.0150   0.0165   0.0169  -0.0086  -0.0086   0.0137   0.00    0.0
2023/06/15 02:14:00.000   3844059.6605    709661.6324   5023129.7266   6  16   0.0149   0.0164   0.0168  -0.0086  -0.0086   0.0137   0.00    0.0
2023/06/15 02:14:30.000   3844059.6606    709661.6323   5023129.7268   6  16   0.0149   0.0163   0.0168  -0.0085  -0.0085   0.0137   0.00    0.0
2023/06/15 02:15:00.000   3844059.6610    709661.6319   5023129.7274   6  16   0.0148   0.0162   0.0167  -0.0085  -0.0085   0.0136   0.00    0.0
2023/06/15 02:15:30.000   3844059.6612    709661.6314   5023129.7278   6  16   0.0148   0.0162   0.0167  -0.0085  -0.0084   0.0136   0.00    0.0
2023/06/15 02:16:00.000   3844059.6611    709661.6313   5023129.7276   6  16   0.0147   0.0161   0.0167  -0.0084  -0.0083   0.0135   0.00    0.0
2023/06/15 02:16:30.000   3844059.6611    709661.6315   5023129.7274   6  16   0.0147   0.0160   0.0166  -0.0084  -0.0083   0.0135   0.00    0.0
2023/06/15 02:17:00.000   3844059.6611    709661.6316   5023129.7274   6  16   0.0146   0.0160   0.0166  -0.0084  -0.0082   0.0134   0.00    0.0
2023/06/15 02:17:30.000   3844059.6609    709661.6314   5023129.7273   6  16   0.0146   0.0159   0.0165  -0.0083  -0.0082   0.0134   0.00    0.0
2023/06/15 02:18:00.000   3844059.6613    709661.6309   5023129.7278   6  16   0.0146   0.0158   0.0165  -0.0083  -0.0081   0.0133   0.00    0.0
2023/06/15 02:18:30.000   3844059.6614    709661.6309   5023129.7279   6  16   0.0145   0.0158   0.0164  -0.0083  -0.0081   0.0133   0.00    0.0
2023/06/15 02:19:00.000   3844059.6616    709661.6312   5023129.7279   6  16   0.0145   0.0157   0.0164  -0.0082  -0.0080   0.0133   0.00    0.0
2023/06/15 02:19:30.000   3844059.6618    709661.6310   5023129.7281   6  16   0.0144   0.0156   0.0163  -0.0082  -0.0080   0.0132   0.00    0.0
2023/06/15 02:20:00.000   3844059.6623    709661.6305   5023129.7288   6  16   0.0144   0.0156   0.0163  -0.0082  -0.0079   0.0132   0.00    0.0
2023/06/15 02:20:30.000   3844059.6624    709661.6304   5023129.7289   6  16   0.0143   0.0155   0.0162  -0.0081  -0.0079   0.0131   0.00    0.0
2023/06/15 02:21:00.000   3844059.6630    709661.6299   5023129.7296   6  16   0.0143   0.0155   0.0162  -0.0081  -0.0078   0.0131   0.00    0.0
2023/06/15 02:21:30.000   3844059.6632    709661.6298   5023129.7297   6  16   0.0142   0.0154   0.0161  -0.0081  -0.0078   0.0130   0.00    0.0
2023/06/15 02:22:00.000   3844059.6632    709661.6297   5023129.7297   6  16   0.0142   0.0153   0.0161  -0.0080  -0.0078   0.0130   0.00    0.0
2023/06/15 02:22:30.000   3844059.6635    709661.6293   5023129.7303   6  16   0.0141   0.0153   0.0160  -0.0080  -0.0077   0.0129   0.00    0.0
2023/06/15 02:23:00.000   3844059.6636    709661.6294   5023129.7303   6  16   0.0141   0.0152   0.0160  -0.0080  -0.0077   0.0129   0.00    0.0
2023/06/15 02:23:30.000   3844059.6640    709661.6290   5023129.7309   6  16   0.0140   0.0152   0.0159  -0.0079  -0.0076   0.0129   0.00    0.0
2023/06/15 02:24:00.000   3844059.6641    709661.6289   5023129.7311   6  16   0.0140   0.0151   0.0159  -0.0079  -0.0076   0.0128   0.00    0.0
2023/06/15 02:24:30.000   3844059.6641    709661.6290   5023129.7310   6  16   0.0140   0.0150   0.0158  -0.0079  -0.0075   0.0128   0.00    0.0
2023/06/15 02:25:00.000   3844059.6642    709661.6288   5023129.7313   6  15   0.0139   0.0150   0.0158  -0.0078  -0.0075   0.0127   0.00    0.0
2023/06/15 02:25:30.000   3844059.6640    709661.6287   5023129.7312   6  15   0.0139   0.0149   0.0157  -0.0078  -0.0075   0.0127   0.00    0.0
2023/06/15 02:26:00.000   3844059.6637    709661.6289   5023129.7309   6  15   0.0138   0.0149   0.0157  -0.0078  -0.0074   0.0127   0.00    0.0
2023/06/15 02:26:30.000   3844059.6634    709661.6290   5023129.7304   6  15   0.0138   0.0148   0.0157  -0.0078  -0.0074   0.0126   0.00    0.0
2023/06/15 02:27:00.000   3844059.6638    709661.6288   5023129.7310   6  15   0.0138   0.0148   0.0156  -0.0077  -0.0073   0.0126   0.00    0.0
2023/06/15 02:27:30.000   3844059.6646    709661.6286   5023129.7323   6  15   0.0137   0.0147   0.0156  -0.0077  -0.0073   0.0125   0.00    0.0
2023/06/15 02:28:00.000   3844059.6647    709661.6290   5023129.7322   6  15   0.0137   0.0147   0.0155  -0.0077  -0.0072   0.0125   0.00    0.0
2023/06/15 02:28:30.000   3844059.6646    709661.6293   5023129.7320   6  15   0.0136   0.0146   0.0155  -0.0077  -0.0072   0.0125   0.00    0.0
2023/06/15 02:29:00.000   3844059.6647    709661.6292   5023129.7323   6  15   0.0136   0.0146   0.0154  -0.0076  -0.0072   0.0124   0.00    0.0
2023/06/15 02:29:30.000   3844059.6649    709661.6292   5023129.7327   6  15   0.0136   0.0145   0.0154  -0.0076  -0.0071   0.0124   0.00    0.0
2023/06/15 02:30:00.000   3844059.6654    709661.6293   5023129.7334   6  15   0.0135   0.0145   0.0153  -0.0076  -0.0071   0.0123   0.00    0.0
2023/06/15 02:30:30.000   3844059.6653    709661.6293   5023129.7334   6  15   0.0135   0.0144   0.0153  -0.0075  -0.0071   0.0123   0.00    0.0
2023/06/15 02:31:00.000   3844059.6656    709661.6292   5023129.7339   6  15   0.0134   0.0144   0.0153  -0.0075  -0.0070   0.0123   0.00    0.0
2023/06/15 02:31:30.000   3844059.6657    709661.6289   5023129.7342   6  15   0.0134   0.0143   0.0152  -0.0075  -0.0070   0.0122   0.00    0.0
2023/06/15 02:32:00.000   3844059.6656    709661.6288   5023129.7341   6  15   0.0134   0.0143   0.0152  -0.0075  -0.0069   0.0122   0.00    0.0
2023/06/15 02:32:30.000   3844059.6656    709661.6288   5023129.7342   6  15   0.0133   0.0142   0.0151  -0.0074  -0.0069   0.0121   0.00    0.0
2023/06/15 02:33:00.000   3844059.6661    709661.6288   5023129.7349   6  15   0.0133   0.0142   0.0151  -0.0074  -0.0069   0.0121   0.00    0.0
2023/06/15 02:33:30.000   3844059.6661    709661.6294   5023129.7347   6  15   0.0132   0.0141   0.0150  -0.0074  -0.0068   0.0121   0.00    0.0
2023/06/15 02:34:00.000   3844059.6661    709661.6294   5023129.7346   6  14   0.0132   0.0141   0.0150  -0.0074  -0.0068   0.0120   0.00    0.0
2023/06/15 02:34:30.000   3844059.6663    709661.6292   5023129.7350   6  14   0.0132   0.0140   0.0150  -0.0073  -0.0068   0.0120   0.00    0.0
2023/06/15 02:35:00.000   3844059.6666    709661.6290   5023129.7354   6  14   0.0132   0.0140   0.0149  -0.0073  -0.0067   0.0120   0.00    0.0
2023/06/15 02:35:30.000   3844059.6668    709661.6289   5023129.7357   6  14   0.0131   0.0139   0.0149  -0.0073  -0.0067   0.0120   0.00    0.0
2023/06/15 02:36:00.000   3844059.6671    709661.6286   5023129.7363   6  14   0.0131   0.0139   0.0149  -0.0072  -0.0066   0.0119   0.00    0.0
2023/06/15 02:36:30.000   3844059.6675    709661.6283   5023129.7369   6  14   0.0131   0.0138   0.0149  -0.0072  -0.0066   0.0119   0.00    0.0
2023/06/15 02:37:00.000   3844059.6675    709661.6278   5023129.7371   6  14   0.0130   0.0138   0.0148  -0.0072  -0.0065   0.0119   0.00    0.0
2023/06/15 02:37:30.000   3844059.6674    709661.6276   5023129.7369   6  14   0.0130   0.0138   0.0148  -0.0071  -0.0065   0.0119   0.00    0.0
2023/06/15 02:38:00.000   3844059.6674    709661.6273   5023129.7371   6  14   0.0130   0.0137   0.0148  -0.0071  -0.0064   0.0118   0.00    0.0
2023/06/15 02:38:30.000   3844059.6678    709661.6269   5023129.7377   6  14   0.0130   0.0137   0.0148  -0.0071  -0.0064   0.0118   0.00    0.0
2023/06/15 02:39:00.000   3844059.6679    709661.6268   5023129.7380   6  14   0.0129   0.0136   0.0147  -0.0071  -0.0064   0.0118   0.00    0.0
2023/06/15 02:39:30.000   3844059.6683    709661.6263   5023129.7384   6  14   0.0129   0.0136   0.0147  -0.0070  -0.0063   0.0118   0.00    0.0
2023/06/15 02:40:00.000   3844059.6684    709661.6259   5023129.7384   6  14   0.0129   0.0135   0.0147  -0.0070  -0.0063   0.0117   0.00    0.0
2023/06/15 02:40:30.000   3844059.6686    709661.6254   5023129.7389   6  14   0.0129   0.0135   0.0146  -0.0070  -0.0062   0.0117   0.00    0.0
2023/06/15 02:41:00.000   3844059.6688    709661.6252   5023129.7393   6  14   0.0128   0.0135   0.0146  -0.0069  -0.0062   0.0117   0.00    0.0
2023/06/15 02:41:30.000   3844059.6690    709661.6249   5023129.7395   6  14   0.0128   0.0134   0.0146  -0.0069  -0.0061   0.0117   0.00    0.0
2023/06/15 02:42:00.000   3844059.6689    709661.6247   5023129.7394   6  14   0.0128   0.0134   0.0146  -0.0069  -0.0061   0.0117   0.00    0.0
2023/06/15 02:42:30.000   3844059.6688    709661.6245   5023129.7394   6  14   0.0127   0.0133   0.0145  -0.0068  -0.0061   0.0116   0.00    0.0
2023/06/15 02:43:00.000   3844059.6688    709661.6244   5023129.7395   6  14   0.0127   0.0133   0.0145  -0.0068  -0.0060   0.0116   0.00    0.0
2023/06/15 02:43:30.000   3844059.6689    709661.6245   5023129.7395   6  14   0.0127   0.0133   0.0145  -0.0068  -0.0060   0.0116   0.00    0.0
2023/06/15 02:44:00.000   3844059.6689    709661.6241   5023129.7397   6  14   0.0127   0.0132   0.0145  -0.0067  -0.0059   0.0116   0.00    0.0
2023/06/15 02:44:30.000   3844059.6691    709661.6239   5023129.7403   6  14   0.0126   0.0132   0.0144  -0.0067  -0.0059   0.0115   0.00    0.0
2023/06/15 02:45:00.000   3844059.6690    709661.6238   5023129.7403   6  14   0.0126   0.0132   0.0144  -0.0067  -0.0059   0.0115   0.00    0.0
2023/06/15 02:45:30.000   3844059.6691    709661.6237   5023129.7406   6  14   0.0126   0.0131   0.0144  -0.0067  -0.0058   0.0115   0.00    0.0
2023/06/15 02:46:00.000   3844059.6690    709661.6236   5023129.7405   6  14   0.0126   0.0131   0.0144  -0.0066  -0.0058   0.0115   0.00    0.0
2023/06/15 02:46:30.000   3844059.6689    709661.6232   5023129.7405   6  14   0.0125   0.0131   0.0143  -0.0066  -0.0057   0.0115   0.00    0.0
2023/06/15 02:47:00.000   3844059.6689    709661.6234   5023129.7404   6  14   0.0125   0.0130   0.0143  -0.0066  -0.0057   0.0114   0.00    0.0
2023/06/15 02:47:30.000   3844059.6688    709661.6232   5023129.7405   6  14   0.0125   0.0130   0.0143  -0.0065  -0.0057   0.0114   0.00    0.0
2023/06/15 02:48:00.000   3844059.6689    709661.6231   5023129.7406   6  14   0.0125   0.0129   0.0143  -0.0065  -0.0056   0.0114   0.00    0.0
2023/06/15 02:48:30.000   3844059.6688    709661.6230   5023129.7407   6  14   0.0124   0.0129   0.0142  -0.0065  -0.0056   0.0114   0.00    0.0
2023/06/15 02:49:00.000   3844059.6687    709661.6230   5023129.7404   6  14   0.0124   0.0129   0.0142  -0.0065  -0.0055   0.0113   0.00    0.0
2023/06/15 02:49:30.000   3844059.6686    709661.6230   5023129.7405   6  14   0.0124   0.0128   0.0142  -0.0064  -0.0055   0.0113   0.00    0.0
2023/06/15 02:50:00.000   3844059.6687    709661.6229   5023129.7406   6  14   0.0124   0.0128   0.0141  -0.0064  -0.0055   0.0113   0.00    0.0
2023/06/15 02:50:30.000   3844059.6685    709661.6228   5023129.7404   6  14   0.0124   0.0128   0.0141  -0.0064  -0.0054   0.0113   0.00    0.0
2023/06/15 02:51:00.000   3844059.6683    709661.6228   5023129.7403   6  14   0.0123   0.0127   0.0141  -0.0064  -0.0054   0.0113   0.00    0.0
2023/06/15 02:51:30.000   3844059.6683    709661.6228   5023129.7406   6  14   0.0123   0.0127   0.0141  -0.0063  -0.0054   0.0112   0.00    0.0
2023/06/15 02:52:00.000   3844059.6682    709661.6227   5023129.7407   6  14   0.0123   0.0127   0.0140  -0.0063  -0.0053   0.0112   0.00    0.0
2023/06/15 02:52:30.000   3844059.6679    709661.6226   5023129.7406   6  14   0.0123   0.0126   0.0140  -0.0063  -0.0053   0.0112   0.00    0.0
2023/06/15 02:53:00.000   3844059.6679    709661.6224   5023129.7406   6  14   0.0122   0.0126   0.0140  -0.0062  -0.0053   0.0112   0.00    0.0
2023/06/15 02:53:30.000   3844059.6681    709661.6222   5023129.7411   6  14   0.0122   0.0126   0.0139  -0.0062  -0.0052   0.0111   0.00    0.0
2023/06/15 02:54:00.000   3844059.6683    709661.6221   5023129.7416   6  15   0.0122   0.0125   0.0139  -0.0062  -0.0052   0.0111   0.00    0.0
2023/06/15 02:54:30.000   3844059.6683    709661.6220   5023129.7417   6  15   0.0122   0.0125   0.0139  -0.0062  -0.0052   0.0111   0.00    0.0
2023/06/15 02:55:00.000   3844059.6682    709661.6220   5023129.7413   6  15   0.0121   0.0125   0.0139  -0.0061  -0.0051   0.0111   0.00    0.0
2023/06/15 02:55:30.000   3844059.6685    709661.6210   5023129.7419   6  14   0.0121   0.0125   0.0138  -0.0061  -0.0051   0.0111   0.00    0.0
2023/06/15 02:56:00.000   3844059.6685    709661.6203   5023129.7419   6  15   0.0121   0.0124   0.0138  -0.0061  -0.0051   0.0110   0.00    0.0
2023/06/15 02:56:30.000   3844059.6687    709661.6196   5023129.7421   6  15   0.0121   0.0124   0.0138  -0.0061  -0.0050   0.0110   0.00    0.0
2023/06/15 02:57:00.000   3844059.6689    709661.6190   5023129.7423   6  15   0.0121   0.0124   0.0138  -0.0060  -0.0050   0.0110   0.00    0.0
2023/06/15 02:57:30.000   3844059.6688    709661.6184   5023129.7426   6  14   0.0120   0.0123   0.0137  -0.0060  -0.0050   0.0110   0.00    0.0
2023/06/15 02:58:00.000   3844059.6687    709661.6179   5023129.7428   6  14   0.0120   0.0123   0.0137  -0.0060  -0.0049   0.0109   0.00    0.0
2023/06/15 02:58:30.000   3844059.6686    709661.6174   5023129.7431   6  14   0.0120   0.0123   0.0137  -0.0060  -0.0049   0.0109   0.00    0.0
2023/06/15 02:59:00.000   3844059.6685    709661.6170   5023129.7431   6  14   0.0120   0.0123   0.0136  -0.0060  -0.0049   0.0109   0.00    0.0
2023/06/15 02:59:30.000   3844059.6684    709661.6167   5023129.7431   6  14   0.0120   0.0122   0.0136  -0.0059  -0.0048   0.0109   0.00    0.0
2023/06/15 03:00:00.000   3844059.6684    709661.6164   5023129.7433   6  14   0.0119   0.0122   0.0136  -0.0059  -0.0048   0.0109   0.00    0.0
2023/06/15 03:00:30.000   3844059.6683    709661.6160   5023129.7434   6  14   0.0119   0.0122   0.0136  -0.0059  -0.0048   0.0108   0.00    0.0
2023/06/15 03:01:00.000   3844059.6682    709661.6157   5023129.7434   6  14   0.0119   0.0121   0.0135  -0.0059  -0.0048   0.0108   0.00    0.0
2023/06/15 03:01:30.000   3844059.6682    709661.6153   5023129.7436   6  14   0.0119   0.0121   0.0135  -0.0058  -0.0047   0.0108   0.00    0.0
2023/06/15 03:02:00.000   3844059.6682    709661.6149   5023129.7441   6  14   0.0119   0.0121   0.0135  -0.0058  -0.0047   0.0108   0.00    0.0
2023/06/15 03:02:30.000   3844059.6682    709661.6144   5023129.7444   6  14   0.0118   0.0121   0.0135  -0.0058  -0.0046   0.0108   0.00    0.0
2023/06/15 03:03:00.000   3844059.6683    709661.6140   5023129.7447   6  14   0.0118   0.0121   0.0134  -0.0058  -0.0046   0.0107   0.00    0.0
2023/06/15 03:03:30.000   3844059.6683    709661.6136   5023129.7449   6  14   0.0118   0.0120   0.0134  -0.0058  -0.0046   0.0107   0.00    0.0
2023/06/15 03:04:00.000   3844059.6682    709661.6133   5023129.7450   6  14   0.0118   0.0120   0.0134  -0.0057  -0.0045   0.0107   0.00    0.0
2023/06/15 03:04:30.000   3844059.6683    709661.6131   5023129.7451   6  14   0.0118   0.0120   0.0133  -0.0057  -0.0045   0.0107   0.00    0.0
2023/06/15 03:05:00.000   3844059.6684    709661.6127   5023129.7455   6  14   0.0117   0.0120   0.0133  -0.0057  -0.0045   0.0107   0.00    0.0
2023/06/15 03:05:30.000   3844059.6685    709661.6124   5023129.7459   6  14   0.0117   0.0119   0.0133  -0.0057  -0.0044   0.0106   0.00    0.0
2023/06/15 03:06:00.000   3844059.6683    709661.6123   5023129.7458   6  14   0.0117   0.0119   0.0133  -0.0056  -0.0044   0.0106   0.00    0.0
2023/06/15 03:06:30.000   3844059.6684    709661.6122   5023129.7463   6  13   0.0117   0.0119   0.0132  -0.0056  -0.0044   0.0106   0.00    0.0
2023/06/15 03:07:00.000   3844059.6683    709661.6122   5023129.7464   6  14   0.0117   0.0119   0.0132  -0.0056  -0.0044   0.0106   0.00    0.0
2023/06/15 03:07:30.000   3844059.6682    709661.6120   5023129.7465   6  14   0.0116   0.0118   0.0132  -0.0056  -0.0043   0.0105   0.00    0.0
2023/06/15 03:08:00.000   3844059.6682    709661.6119   5023129.7467   6  14   0.0116   0.0118   0.0131  -0.0056  -0.0043   0.0105   0.00    0.0
2023/06/15 03:08:30.000   3844059.6680    709661.6119   5023129.7466   6  14   0.0116   0.0118   0.0131  -0.0055  -0.0043   0.0105   0.00    0.0
2023/06/15 03:09:00.000   3844059.6678    709661.6118   5023129.7465   6  14   0.0116   0.0118   0.0131  -0.0055  -0.0042   0.0105   0.00    0.0
2023/06/15 03:09:30.000   3844059.6678    709661.6117   5023129.7466   6  14   0.0116   0.0118   0.0131  -0.0055  -0.0042   0.0105   0.00    0.0
2023/06/15 03:10:00.000   3844059.6678    709661.6116   5023129.7469   6  13   0.0115   0.0117   0.0130  -0.0055  -0.0042   0.0104   0.00    0.0
2023/06/15 03:10:30.000   3844059.6679    709661.6114   5023129.7470   6  12   0.0115   0.0117   0.0130  -0.0054  -0.0041   0.0104   0.00    0.0
2023/06/15 03:11:00.000   3844059.6677    709661.6112   5023129.7470   6  12   0.0115   0.0117   0.0130  -0.0054  -0.0041   0.0104   0.00    0.0
2023/06/15 03:11:30.000   3844059.6677    709661.6111   5023129.7471   6  12   0.0115   0.0117   0.0130  -0.0054  -0.0040   0.0104   0.00    0.0
2023/06/15 03:12:00.000   3844059.6677    709661.6110   5023129.7472   6  12   0.0115   0.0117   0.0129  -0.0054  -0.0040   0.0104   0.00    0.0
2023/06/15 03:12:30.000   3844059.6679    709661.6107   5023129.7477   6  12   0.0115   0.0116   0.0129  -0.0053  -0.0040   0.0103   0.00    0.0
2023/06/15 03:13:00.000   3844059.6679    709661.6107   5023129.7479   6  12   0.0114   0.0116   0.0129  -0.0053  -0.0039   0.0103   0.00    0.0
2023/06/15 03:13:30.000   3844059.6679    709661.6106   5023129.7480   6  12   0.0114   0.0116   0.0129  -0.0053  -0.0039   0.0103   0.00    0.0
2023/06/15 03:14:00.000   3844059.6680    709661.6104   5023129.7482   6  12   0.0114   0.0116   0.0128  -0.0053  -0.0039   0.0103   0.00    0.0
2023/06/15 03:14:30.000   3844059.6679    709661.6103   5023129.7480   6  12   0.0114   0.0116   0.0128  -0.0052  -0.0038   0.0103   0.00    0.0
2023/06/15 03:15:00.000   3844059.6679    709661.6101   5023129.7482   6  12   0.0114   0.0116   0.0128  -0.0052  -0.0038   0.0102   0.00    0.0
2023/06/15 03:15:30.000   3844059.6680    709661.6100   5023129.7484   6  12   0.0114   0.0115   0.0127  -0.0052  -0.0037   0.0102   0.00    0.0
2023/06/15 03:16:00.000   3844059.6681    709661.6098   5023129.7484   6  12   0.0113   0.0115   0.0127  -0.0052  -0.0037   0.0102   0.00    0.0
2023/06/15 03:16:30.000   3844059.6680    709661.6098   5023129.7485   6  12   0.0113   0.0115   0.0127  -0.0051  -0.0037   0.0102   0.00    0.0
2023/06/15 03:17:00.000   3844059.6680    709661.6097   5023129.7484   6  12   0.0113   0.0115   0.0127  -0.0051  -0.0036   0.0102   0.00    0.0
2023/06/15 03:17:30.000   3844059.6679    709661.6096   5023129.7483   6  12   0.0113   0.0115   0.0126  -0.0051  -0.0036   0.0102   0.00    0.0
2023/06/15 03:18:00.000   3844059.6678    709661.6096   5023129.7483   6  12   0.0113   0.0115   0.0126  -0.0050  -0.0035   0.0101   0.00    0.0
2023/06/15 03:18:30.000   3844059.6679    709661.6095   5023129.7485   6  12   0.0113   0.0114   0.0126  -0.0050  -0.0035   0.0101   0.00    0.0
2023/06/15 03:19:00.000   3844059.6679    709661.6095   5023129.7487   6  12   0.0112   0.0114   0.0126  -0.0050  -0.0035   0.0101   0.00    0.0
2023/06/15 03:19:30.000   3844059.6678    709661.6095   5023129.7487   6  12   0.0112   0.0114   0.0125  -0.0050  -0.0034   0.0101   0.00    0.0
2023/06/15 03:20:00.000   3844059.6678    709661.6094   5023129.7487   6  12   0.0112   0.0114   0.0125  -0.0049  -0.0034   0.0101   0.00    0.0
2023/06/15 03:20:30.000   3844059.6678    709661.6094   5023129.7487   6  12   0.0112   0.0114   0.0125  -0.0049  -0.0034   0.0100   0.00    0.0
2023/06/15 03:21:00.000   3844059.6677    709661.6094   5023129.7487   6  13   0.0112   0.0114   0.0125  -0.0049  -0.0033   0.0100   0.00    0.0
2023/06/15 03:21:30.000   3844059.6677    709661.6094   5023129.7489   6  13   0.0112   0.0113   0.0124  -0.0049  -0.0033   0.0100   0.00    0.0
2023/06/15 03:22:00.000   3844059.6678    709661.6094   5023129.7491   6  13   0.0111   0.0113   0.0124  -0.0048  -0.0032   0.0100   0.00    0.0
2023/06/15 03:22:30.000   3844059.6678    709661.6094   5023129.7492   6  13   0.0111   0.0113   0.0124  -0.0048  -0.0032   0.0100   0.00    0.0
2023/06/15 03:23:00.000   3844059.6677    709661.6094   5023129.7491   6  13   0.0111   0.0113   0.0123  -0.0048  -0.0032   0.0099   0.00    0.0
